id,state_code,latitude,longitude,zip_code,city,name,foundation_date,first_funding_date,last_funding_date,first_funding_age,last_funding_age,first_milestone_age,last_milestone_age,connections,funding_rounds,total_funding,milestones,in_CA,in_NY,in_MA,in_TX,in_otherstate,category,is_software,is_web,is_mobile,is_enterprise,is_advertising,is_gamesvideo,is_ecommerce,is_biotech,is_consulting,is_othercategory,roundA,roundB,roundC,roundD,avg_group_size,in_Top500,Target
c:6669,CA,42.35888,-71.05682,92101,San Diego,Bandsintown,1/1/2007,4/1/2009,1/1/2010,2.2493,3.0027,4.6685,6.7041,3,3,375000,3,1,0,0,0,0,music,0,0,0,0,0,0,0,0,0,1,0,0,0,0,1,0,acquired
c:16283,CA,37.238916,-121.973718,95032,Los Gatos,TriCipher,1/1/2000,2/14/2005,12/28/2009,5.126,9.9973,7.0055,7.0055,9,4,40100000,1,1,0,0,0,0,enterprise,0,0,0,1,0,0,0,0,0,0,0,1,1,1,4.75,1,acquired
c:65620,CA,32.901049,-117.192656,92121,San Diego,Plixi,3/18/2009,3/30/2010,3/30/2010,1.0329,1.0329,1.4575,2.2055,5,1,2600000,2,1,0,0,0,0,web,0,1,0,0,0,0,0,0,0,0,1,0,0,0,4,1,acquired
c:42668,CA,37.320309,-122.05004,95014,Cupertino,Solidcore Systems,1/1/2002,2/17/2005,4/25/2007,3.1315,5.3151,6.0027,6.0027,5,3,40000000,1,1,0,0,0,0,software,1,0,0,0,0,0,0,0,0,0,0,1,1,1,3.3333,1,acquired
c:65806,CA,37.779281,-122.419236,94105,San Francisco,Inhale Digital,8/1/2010,8/1/2010,4/1/2012,0,1.6685,0.0384,0.0384,2,2,1300000,1,1,0,0,0,0,games_video,0,0,0,0,0,1,0,0,0,0,0,0,0,0,1,1,closed
c:22898,CA,37.406914,-122.09037,94043,Mountain View,Matisse Networks,1/1/2002,7/18/2006,7/18/2006,4.5452,4.5452,5.0027,5.0027,3,1,7500000,1,1,0,0,0,0,network_hosting,0,0,0,0,0,0,0,0,0,1,0,1,0,0,3,1,closed
c:16191,CA,37.3915589,-122.0702643,94041,Mountain View,RingCube Technologies,1/1/2005,9/21/2006,3/18/2010,1.7205,5.211,3,6.6082,6,3,26000000,2,1,0,0,0,0,software,1,0,0,0,0,0,0,0,0,0,1,1,0,0,1.6667,1,acquired
c:5192,CA,38.057107,-122.513742,94901,San Rafael,ClairMail,1/1/2004,8/24/2005,10/4/2010,1.6466,6.7616,5.6055,7.3616,25,3,34100000,3,1,0,0,0,0,finance,0,0,0,0,0,0,0,0,0,1,1,1,0,1,3.5,1,acquired
c:1043,MA,42.712207,-73.203599,1267,Williamstown,VoodooVox,1/1/2002,8/2/2005,2/8/2013,3.5863,11.1123,8.0055,9.9945,13,3,9650000,4,0,0,1,0,0,mobile,0,0,1,0,0,0,0,0,0,0,1,0,0,1,4,1,acquired
c:498,CA,37.427235,-122.145783,94306,Palo Alto,Doostang,6/1/2005,2/1/2007,2/5/2010,1.6712,4.6849,2.9178,6.1151,14,3,5750000,4,1,0,0,0,0,web,0,1,0,0,0,0,0,0,0,0,1,0,0,0,1,1,acquired
c:3949,CA,37.4429885,-122.1624131,94025,Menlo Park,Zong,11/15/2000,7/1/2005,4/26/2010,4.6274,9.4493,10.1342,10.6493,22,3,27500000,3,1,0,0,0,0,mobile,0,0,1,0,0,0,0,0,0,0,1,1,0,0,1,1,acquired
c:4829,CA,37.452992,-122.185098,94025,Menlo Park,Center'd,1/1/2006,2/1/2007,5/3/2011,1.0849,5.337,-0.6164,4.6082,8,5,10400000,2,1,0,0,0,0,web,0,1,0,0,0,0,0,0,0,0,1,0,0,0,1.75,1,closed
c:30290,KY,38.241467,-85.724511,40204,Louisville,Resonant Vibes,1/1/2004,11/25/2008,11/25/2008,4.9041,4.9041,,,0,1,350000,0,0,0,0,0,1,web,0,1,0,0,0,0,0,0,0,0,0,0,0,0,1,0,closed
c:1491,NY,40.70276,-73.986668,11201,Brooklyn,drop.io,11/26/2007,12/3/2007,5/3/2010,0.0192,2.4356,0.7945,4.3781,15,3,9950000,3,0,1,0,0,0,education,0,0,0,0,0,0,0,0,0,1,1,1,1,0,2.3333,1,acquired
c:15645,CO,39.7462728,-104.9911572,80202,Denver,Stratavia,1/1/2001,8/31/2005,12/29/2009,4.6658,8.9973,8.8384,8.8384,12,5,10700000,1,0,0,0,0,1,software,1,0,0,0,0,0,0,0,0,0,1,1,0,0,2.5,1,acquired
c:54177,VA,38.901301,-77.265158,22182,Vienna,Invicta Networks,1/1/1999,8/9/2005,8/9/2005,6.6082,6.6082,,,0,1,200000,0,0,0,0,0,1,public_relations,0,0,0,0,0,0,0,0,0,1,0,0,0,0,1,0,closed
c:16770,CA,37.3962827,-122.105531,94022,Los Altos,QSecure,1/1/2003,8/2/2005,10/5/2009,2.5863,6.7644,5.5014,5.5014,8,5,49000000,1,1,0,0,0,0,security,0,0,0,0,0,0,0,0,0,1,1,1,1,1,3.5,1,closed
c:107,CA,37.590339,-122.341715,94010,Burlingame,MeeVee,7/1/2000,2/1/2005,9/1/2007,4.5918,7.1726,-0.4986,12.6795,7,4,25000000,3,1,0,0,0,0,games_video,0,0,0,0,0,1,0,0,0,0,1,1,1,1,3.5,1,acquired
c:50727,NY,40.730646,-73.986614,10004,New York,SinglePlatform,1/1/2010,9/29/2010,8/1/2011,0.7425,1.5808,1.2849,3.0027,10,3,4575000,3,0,1,0,0,0,web,0,1,0,0,0,0,0,0,0,0,1,0,0,0,5,1,acquired
c:26368,CA,37.446411,-122.16054,94301,Palo Alto,Bling Nation,1/1/2007,7/2/2009,10/30/2009,2.5014,2.8301,3.0877,3.4932,13,2,28000000,3,1,0,0,0,0,enterprise,0,0,0,1,0,0,0,0,0,0,1,1,0,0,1,1,closed
c:22291,TX,30.2350399,-97.8001299,78735,Austin,Metreos Corporation,1/1/2001,3/20/2003,10/14/2004,2.2137,3.7863,4.0877,9.4986,8,2,4355000,3,0,0,0,1,0,software,1,0,0,0,0,0,0,0,0,0,1,0,0,0,1.5,0,acquired
c:17857,WA,47.6026054,-122.2848651,98122,Seattle,Hidden City Games,1/1/2004,10/31/2007,10/31/2007,3.8329,3.8329,3.7507,3.7507,3,1,15000000,1,0,0,0,0,1,other,0,0,0,0,0,0,0,0,0,1,0,1,0,0,2,1,closed
c:15888,CA,37.426316,-122.141082,94306,Palo Alto,Neopolitan Networks,1/1/2002,6/28/2007,6/28/2007,5.4904,5.4904,0,0,1,1,3170000,1,1,0,0,0,0,web,0,1,0,0,0,0,0,0,0,0,1,0,0,0,2,0,closed
c:10751,CA,37.764395,-122.401024,94103,San Francisco,Pixelpipe,1/1/2008,1/1/2007,4/25/2011,-1,3.3151,3.6959,5.663,4,2,2300000,3,1,0,0,0,0,mobile,0,0,1,0,0,0,0,0,0,0,1,0,0,0,2,0,closed
c:458,CO,40.010492,-105.276843,80302,Boulder,EventVue,5/1/2007,8/1/2007,9/1/2007,0.2521,0.337,,,5,2,455000,0,0,0,0,0,1,public_relations,0,0,0,0,0,0,0,0,0,1,1,0,0,0,4.5,1,closed
c:45525,IL,41.875555,-87.624421,60601,Chicago,BridgePort Networks,1/1/2002,11/3/2006,11/3/2006,4.8411,4.8411,1,1,3,1,13000000,1,0,0,0,0,1,software,1,0,0,0,0,0,0,0,0,0,0,0,1,0,4,1,acquired
c:3193,CA,37.429676,-122.1085482,94303,Palo Alto,Scalent Systems,1/1/2003,1/22/2007,1/22/2007,4.0603,4.0603,3.0027,3.0027,7,1,15000000,1,1,0,0,0,0,public_relations,0,0,0,0,0,0,0,0,0,1,0,0,1,0,4,1,acquired
c:28456,CA,37.870102,-122.268136,94704,Berkeley,IQ Engines,6/1/2008,6/25/2012,6/25/2012,4.0685,4.0685,3.4192,5.2301,2,1,3800000,3,1,0,0,0,0,photo_video,0,0,0,0,0,0,0,0,0,1,0,1,0,0,2,1,acquired
c:36920,TX,30.2653441,-97.7435857,78701,Austin,"RetailMeNot, Inc.",5/1/2007,11/1/2009,11/10/2011,2.5068,4.5315,4.9315,5.6767,37,5,299500000,2,0,0,0,1,0,web,0,1,0,0,0,0,0,0,0,0,1,0,1,0,1.75,1,acquired
c:35712,CA,33.708708,-117.852069,92705,Santa Ana,Mophie,5/24/2005,8/1/2006,8/1/2006,1.189,1.189,2.189,7.7753,5,1,1000000,3,1,0,0,0,0,hardware,0,0,0,0,0,0,0,0,0,1,0,0,0,0,2,1,acquired
c:21492,CA,37.422859,-122.045217,94035,Moffett Field,Airship Ventures,1/1/2007,5/9/2008,3/1/2009,1.3534,2.1644,4.5178,4.5178,3,2,10500000,1,1,0,0,0,0,other,0,0,0,0,0,0,0,0,0,1,1,1,0,0,2,1,closed
c:28768,WA,47.603832,-122.330062,98119,Seattle,Lockdown Networks,1/1/2001,2/25/2005,3/2/2006,4.1534,5.1671,3,3,6,2,8600000,1,0,0,0,0,1,public_relations,0,0,0,0,0,0,0,0,0,1,0,1,0,0,1.5,1,acquired
c:27741,NC,36.002893,-78.904075,27701,Durham,eMinor,10/1/2006,8/1/2006,10/7/2008,-0.1671,2.0192,,,9,2,5000000,0,0,0,0,0,1,software,1,0,0,0,0,0,0,0,0,0,1,1,0,0,2.5,1,closed
c:150658,CA,37.779281,-122.419236,94105,San Francisco,Karma,1/1/2011,1/1/2011,11/14/2011,0,0.8685,0.4137,2.1671,3,2,2304999,2,1,0,0,0,0,mobile,0,0,1,0,0,0,0,0,0,0,0,0,0,0,5,1,acquired
c:34338,PA,40.441694,-79.990086,15219,Pittsburgh,Zipano,6/1/2009,7/1/2009,7/1/2009,0.0822,0.0822,,,2,1,25000,0,0,0,0,0,1,security,0,0,0,0,0,0,0,0,0,1,0,0,0,0,1,0,closed
c:45111,NY,40.73901,-73.997259,10011,New York,Entertainment Media Works,7/1/2004,2/26/2007,2/26/2007,2.6575,2.6575,0,0,1,1,4000000,1,0,1,0,0,0,software,1,0,0,0,0,0,0,0,0,0,0,1,0,0,1,1,closed
c:3178,CA,37.791137,-122.391843,94111,San Francisco,Elastra,1/1/2007,8/15/2007,8/5/2008,0.6192,1.5945,1,4.3315,8,2,14600000,3,1,0,0,0,0,software,1,0,0,0,0,0,0,0,0,0,1,1,0,0,2,1,closed
c:35402,CA,37.404788,-121.940842,95134,San Jose,RPO,1/1/2005,1/24/2006,9/13/2010,1.063,5.7014,,,0,3,44000000,0,1,0,0,0,0,hardware,0,0,0,0,0,0,0,0,0,1,0,1,1,0,4.5,1,closed
c:22856,CA,37.7795014,-122.3948712,94107,San Francisco,Fotomoto,10/1/2008,12/1/2008,5/26/2011,0.1671,2.6493,0.6082,4.7507,10,3,1822922,3,1,0,0,0,0,ecommerce,0,0,0,0,0,0,1,0,0,0,1,0,0,0,2.3333,1,acquired
c:1224,NY,40.755446,-73.980246,10010,New York,Peer39,3/1/2006,3/1/2006,1/24/2012,0,5.9041,3.8411,7.137,18,7,29915001,5,0,1,0,0,0,advertising,0,0,0,0,1,0,0,0,0,0,1,1,1,0,2.75,1,acquired
c:1234,GA,33.756806,-84.392198,30303,Atlanta,Vitrue,5/1/2006,5/1/2006,2/17/2011,0,4.8027,3.7205,7.6164,26,4,33000000,5,0,0,0,0,1,enterprise,0,0,0,1,0,0,0,0,0,0,1,1,1,0,3,1,acquired
c:149809,NH,42.99564,-71.454789,3101,Manchester,Trendslide,8/1/2011,8/1/2011,3/1/2012,0,0.5836,0.5836,0.5945,9,2,125000,2,0,0,0,0,1,mobile,0,0,1,0,0,0,0,0,0,0,0,0,0,0,1,0,acquired
c:13733,CA,40.0157332,-105.275027,94025,Menlo Park,PublicEarth,1/1/2008,2/8/2008,5/21/2010,0.1041,2.3863,2.3315,2.7918,7,2,4000000,2,1,0,0,0,0,travel,0,0,0,0,0,0,0,0,0,1,1,0,0,0,1,1,closed
c:39106,WA,47.63609,-122.327028,98102,Seattle,Azaleos,5/11/2004,11/6/2007,11/6/2007,3.4904,3.4904,5.6603,8.3425,10,1,10000000,3,0,0,0,0,1,enterprise,0,0,0,1,0,0,0,0,0,0,0,0,1,0,2,1,acquired
c:5306,CA,37.4049731,-122.0323525,94089,Sunnyvale,Efficient Frontier,1/1/2002,8/31/2006,8/31/2006,4.6658,4.6658,8.7425,10.2247,25,1,6000000,4,1,0,0,0,0,advertising,0,0,0,0,1,0,0,0,0,0,0,0,1,0,3,1,acquired
c:16303,CA,37.36883,-122.03635,94085,Sunnyvale,NetDevices,1/1/2003,8/16/2005,8/16/2005,2.6247,2.6247,,,4,1,25000000,0,1,0,0,0,0,software,1,0,0,0,0,0,0,0,0,0,0,1,0,0,5,1,acquired
c:43188,NY,40.730646,-73.986614,100011,New York,Go Try It On,12/1/2009,11/4/2010,11/13/2012,0.926,2.9534,0.8329,2.7425,2,3,3750000,3,0,1,0,0,0,fashion,0,0,0,0,0,0,0,0,0,1,1,0,0,0,2,1,acquired
c:33507,MA,42.3751,-71.105616,2139,Cambridge,Performable,10/17/2009,1/15/2010,1/15/2010,0.2466,0.2466,1.1178,1.663,9,1,3000000,2,0,0,1,0,0,software,1,0,0,0,0,0,0,0,0,0,1,0,0,0,1,1,acquired
c:68157,CA,37.779281,-122.419236,94607,San Francisco,Appstores.com,5/24/2010,8/1/2010,8/1/2011,0.189,1.189,1.3562,1.6575,6,2,1155000,2,1,0,0,0,0,software,1,0,0,0,0,0,0,0,0,0,0,0,0,0,9.5,1,acquired
c:2395,CA,37.560781,-122.284114,94404,San Mateo,Fortify Software,10/1/2002,12/15/2005,12/15/2005,3.2082,3.2082,5.2548,7.8822,11,1,10000000,2,1,0,0,0,0,software,1,0,0,0,0,0,0,0,0,0,0,0,0,1,2,1,acquired
c:38220,CA,37.658313,-122.391032,94080,South San Francisco,iCurrent,1/1/2006,8/1/2008,8/1/2008,2.5836,2.5836,2,2,5,1,3000000,1,1,0,0,0,0,web,0,1,0,0,0,0,0,0,0,0,1,0,0,0,1,1,acquired
c:49815,MA,42.360253,-71.058291,2210,Boston,AisleBuyer,1/1/2009,11/23/2010,6/13/2011,1.8932,2.4466,2,3.2767,4,2,11500000,3,0,0,1,0,0,mobile,0,0,1,0,0,0,0,0,0,0,0,0,0,0,1,1,acquired
c:249,TX,30.321464,-97.75501,78731,Austin,Indeed,11/1/2004,8/1/2005,8/1/2005,0.7479,0.7479,4.0493,8.3233,12,1,5000000,5,0,0,0,1,0,web,0,1,0,0,0,0,0,0,0,0,1,0,0,0,3,1,acquired
c:22027,MA,42.37564,-71.2358,2451,Waltham,Colubris Networks,1/1/2000,3/8/2005,10/23/2006,5.1863,6.8137,7.3342,7.3342,9,2,29000000,1,0,0,1,0,0,public_relations,0,0,0,0,0,0,0,0,0,1,0,0,0,1,5,1,acquired
c:109,CA,37.7870842,-122.4038047,94103,San Francisco,Mashery,5/1/2006,1/1/2007,7/23/2012,0.6712,6.2329,4.0493,7.5973,37,6,34700000,4,1,0,0,0,0,enterprise,0,0,0,1,0,0,0,0,0,0,1,1,1,1,5,1,acquired
c:43948,CA,37.441537,-122.158332,94301,Palo Alto,Transparency Software,1/1/2004,3/9/2005,7/1/2007,1.1863,3.4986,,,0,2,12050000,0,1,0,0,0,0,software,1,0,0,0,0,0,0,0,0,0,1,0,0,0,2,1,closed
c:765,CA,37.445586,-122.161929,95128,Palo Alto,Viewdle,1/1/2006,3/1/2008,10/5/2010,2.1644,4.7616,4.0027,6.7534,13,3,12000000,2,1,0,0,0,0,analytics,0,0,0,0,0,0,0,0,0,1,1,1,0,0,2,1,acquired
c:19257,CA,33.5842816,-117.7306817,92656,Aliso Viejo,Enclarity,2/1/2005,3/10/2009,3/10/2009,4.1041,4.1041,1.9151,1.9151,18,1,5500000,1,1,0,0,0,0,consulting,0,0,0,0,0,0,0,0,1,0,0,0,1,0,2,1,acquired
c:25827,CA,37.402773,-122.052551,94089,Sunnyvale,Virsto Software,7/1/2007,6/26/2009,8/25/2011,1.989,4.1534,2.8986,5.2575,10,3,24000000,4,1,0,0,0,0,software,1,0,0,0,0,0,0,0,0,0,1,1,0,0,3.3333,1,acquired
c:5932,MO,39.103151,-94.581908,64106,Kansas City,Handmark,7/1/2000,9/12/2005,9/7/2006,5.2027,6.189,7.5068,12.8932,6,2,10000000,2,0,0,0,0,1,mobile,0,0,1,0,0,0,0,0,0,0,1,1,0,0,4.5,1,acquired
c:35157,MA,42.546483,-71.173667,1887,Wilmington,Viacor,12/1/1999,9/12/2002,11/10/2010,2.7836,10.9507,-1.9151,-1.9151,10,3,19009671,1,0,0,1,0,0,biotech,0,0,0,0,0,0,0,1,0,0,0,1,0,0,2,1,closed
c:8596,CA,37.805289,-122.404448,94111,San Francisco,Carbonetworks,1/1/2005,7/1/2008,7/1/2008,3.4986,3.4986,3,3,6,1,5000000,1,1,0,0,0,0,cleantech,0,0,0,0,0,0,0,0,0,1,1,0,0,0,1,1,closed
c:19861,WA,47.675489,-122.191667,98033-6314,Kirkland,SchemaLogic,1/1/2001,1/17/2005,4/20/2010,4.0466,9.3041,6.0027,6.0027,2,5,18914576,1,0,0,0,0,1,enterprise,0,0,0,1,0,0,0,0,0,0,0,0,1,0,3,1,acquired
c:45114,FL,27.951849,-82.456397,33609,Tampa,Skyway Software,1/1/2001,5/16/2007,5/16/2007,6.3726,6.3726,,,0,1,4000000,0,0,0,0,0,1,software,1,0,0,0,0,0,0,0,0,0,0,0,0,0,3,0,closed
c:23533,MA,42.360253,-71.058291,02111-1720,Boston,CardStar,12/1/2008,3/30/2010,9/13/2011,1.326,2.7836,1.674,3.1342,5,3,2030882,2,0,0,1,0,0,software,1,0,0,0,0,0,0,0,0,0,1,0,0,0,3,1,acquired
c:25325,CA,37.7831775,-122.3086191,94501,Alameda,Makani Power,1/1/2006,8/23/2008,8/23/2008,2.6438,2.6438,0,7.3918,4,1,5000000,2,1,0,0,0,0,cleantech,0,0,0,0,0,0,0,0,0,1,0,1,0,0,1,1,acquired
c:8351,WA,47.765758,-122.184304,98011,Bothell,Myrio,12/1/1999,1/1/2001,1/1/2001,1.0877,1.0877,,,5,1,20500000,0,0,0,0,0,1,software,1,0,0,0,0,0,0,0,0,0,0,0,0,0,4,1,closed
c:10392,CO,40.730646,-73.986614,80302,Boulder,Intela,2/2/2006,1/18/2010,8/9/2012,3.9616,6.5205,4.5781,7.6877,4,2,13250000,4,0,0,0,0,1,advertising,0,0,0,0,1,0,0,0,0,0,0,0,0,0,2,0,acquired
c:26128,CA,37.54763,-122.307887,94403-1855,San Mateo,Sana Security,1/1/2000,4/2/2007,4/2/2007,7.2548,7.2548,7.0055,7.0055,7,1,12000000,1,1,0,0,0,0,security,0,0,0,0,0,0,0,0,0,1,0,0,0,0,2,1,acquired
c:2808,CA,37.790485,-122.40094,94104,San Francisco,Sportgenic,9/1/2005,1/1/2007,9/9/2008,1.3342,3.0247,3.0219,3.337,9,3,11489687,2,1,0,0,0,0,advertising,0,0,0,0,1,0,0,0,0,0,1,1,0,0,3.3333,1,acquired
c:10581,CA,37.7870923,-122.3999719,94105,San Francisco,Lolapps,1/1/2008,9/5/2008,9/5/2008,0.6795,0.6795,2.9178,4.2274,15,1,4000000,3,1,0,0,0,0,web,0,1,0,0,0,0,0,0,0,0,1,0,0,0,3,1,acquired
c:190214,CA,37.3492097,-122.0326019,94087,Sunnyvale,Behavio,6/12/2012,6/1/2012,6/1/2012,-0.0301,-0.0301,0.137,0.137,3,1,355000,1,1,0,0,0,0,software,1,0,0,0,0,0,0,0,0,0,0,0,0,0,1,0,acquired
c:1674,FL,28.098905,-82.400087,33626,Tampa,Infinity Box,1/1/2006,1/1/2006,4/1/2006,0,0.2466,2.4164,5.3151,10,2,118000,3,0,0,0,0,1,web,0,1,0,0,0,0,0,0,0,0,0,0,0,0,1.5,1,acquired
c:170,CA,37.779026,-122.40184,94103,San Francisco,adBrite,1/1/2003,9/1/2004,5/1/2012,1.6685,9.337,7.3808,10.474,17,4,40400000,3,1,0,0,0,0,advertising,0,0,0,0,1,0,0,0,0,0,1,1,1,1,1.6667,1,acquired
c:27740,TX,32.9583632,-96.8215658,75001,Dallas,Texert,1/1/2007,10/21/2008,10/21/2008,1.8055,1.8055,,,1,1,3000000,0,0,0,0,1,0,software,1,0,0,0,0,0,0,0,0,0,1,0,0,0,1,1,closed
c:46186,CA,37.54827,-121.988572,94538,Fremont,Mendocino Software,1/1/2003,9/12/2005,1/1/2007,2.6986,4.0027,1,1,2,2,19700000,1,1,0,0,0,0,software,1,0,0,0,0,0,0,0,0,0,0,1,0,0,4,1,closed
c:43162,CA,37.354469,-121.990433,95051,Santa Clara,QuikCycle,1/1/1998,3/1/2007,3/12/2007,9.1671,9.1973,,,0,2,17800000,0,1,0,0,0,0,software,1,0,0,0,0,0,0,0,0,0,0,0,0,0,1,1,closed
c:43233,CA,37.779281,-122.419236,94107,San Francisco,Instagram,3/1/2010,3/5/2010,4/5/2012,0.011,2.0986,3.0904,3.7836,12,3,57500000,3,1,0,0,0,0,photo_video,0,0,0,0,0,0,0,0,0,1,1,1,0,0,4,1,acquired
c:1498,NY,40.606061,-73.822331,10004,New York,Motionbox,1/1/2006,9/1/2006,1/14/2009,0.6658,3.0384,2,5.0548,10,3,17200000,5,0,1,0,0,0,games_video,0,0,0,0,0,1,0,0,0,0,1,1,1,0,2.6667,1,acquired
c:31514,MA,42.3751,-71.105616,2138,Cambridge,AccelGolf,8/1/2008,1/1/2008,12/4/2009,-0.5836,1.3425,0,1.5479,4,7,457282,2,0,0,1,0,0,mobile,0,0,1,0,0,0,0,0,0,0,0,0,0,0,1,1,closed
c:58944,CA,37.779281,-122.419236,94105,San Francisco,MoPub,9/9/2010,9/1/2010,9/20/2012,-0.0219,2.0329,2.3151,3.1644,11,4,18500000,3,1,0,0,0,0,mobile,0,0,1,0,0,0,0,0,0,0,1,1,0,0,2.25,1,acquired
c:40197,NJ,40.349274,-74.659296,8540,Princeton,DNP Green Technology,1/1/2008,1/17/2010,1/17/2010,2.0466,2.0466,,,2,1,12000000,0,0,0,0,0,1,cleantech,0,0,0,0,0,0,0,0,0,1,1,0,0,0,6,1,closed
c:51023,CO,40.397761,-105.07498,80538,Loveland,Abound Solar,1/1/2007,7/6/2010,12/15/2010,3.5123,3.9562,3.9534,4.8356,5,2,510000000,3,0,0,0,0,1,cleantech,0,0,0,0,0,0,0,0,0,1,0,0,0,0,2.5,1,closed
c:13168,CA,37.420428,-122.090769,94043,Mountain View,Trovix,1/1/2002,12/7/2005,9/6/2006,3.9342,4.6822,4.0027,4.0027,3,2,18250000,1,1,0,0,0,0,search,0,0,0,0,0,0,0,0,0,1,1,1,0,0,2.5,1,acquired
c:649,NY,40.725435,-73.997395,10012,New York,Thumbplay,9/1/2004,10/30/2006,4/21/2010,2.1616,5.6384,3.8329,7.6932,13,4,41500019,5,0,1,0,0,0,music,0,0,0,0,0,0,0,0,0,1,0,0,1,0,4,1,acquired
c:52694,WV,39.388156,-77.885552,25430,Kearneysville,Plethora Technology,1/1/2000,6/9/2005,6/9/2005,5.4411,5.4411,,,1,1,1000000,0,0,0,0,0,1,software,1,0,0,0,0,0,0,0,0,0,1,0,0,0,3,0,closed
c:3080,CA,34.043948,-118.468204,90025,Los Angeles,DailyStrength,4/1/2006,5/18/2007,5/18/2007,1.1288,1.1288,1,2.6767,7,1,5000000,2,1,0,0,0,0,web,0,1,0,0,0,0,0,0,0,0,1,0,0,0,1,1,acquired
c:28424,MI,42.350749,-83.444589,48187,Canton,Danotek Motion Technologies,1/1/2001,11/19/2008,8/30/2011,7.8877,10.6658,0.4137,0.4137,2,3,42700000,1,0,0,0,0,1,cleantech,0,0,0,0,0,0,0,0,0,1,0,1,0,0,3.6667,1,closed
c:280611,CA,37.388869,-122.072353,94041,Mountain View,Yub,1/1/2013,11/19/2013,11/19/2013,0.8822,0.8822,,,7,1,12000000,0,1,0,0,0,0,ecommerce,0,0,0,0,0,0,1,0,0,0,0,0,0,0,9,1,closed
c:30537,WA,47.614018,-122.19655,98004,Bellevue,SNAPin Software,1/1/2003,7/11/2005,2/7/2006,2.526,3.1041,3.0027,9.126,5,2,22300000,2,0,0,0,0,1,software,1,0,0,0,0,0,0,0,0,0,0,1,1,0,4.5,1,acquired
c:14656,CA,37.406217,-121.976473,95054,Santa Clara,Azuro,1/1/2002,1/1/2006,11/13/2009,4.0027,7.8712,0.1616,0.1616,5,2,10000000,1,1,0,0,0,0,semiconductor,0,0,0,0,0,0,0,0,0,1,0,1,0,0,4,1,acquired
c:1766,DC,37.09024,-95.712891,20007,Washington,ARPU,5/1/2005,7/1/2006,12/29/2009,1.1671,4.6658,,,1,3,15564591,0,0,0,0,0,1,advertising,0,0,0,0,1,0,0,0,0,0,0,1,1,0,3.5,1,closed
c:16938,CA,37.779281,-122.419236,94105,San Francisco,BookFresh,1/1/2007,7/28/2009,7/28/2009,2.5726,2.5726,2.4795,4.6685,7,1,500000,2,1,0,0,0,0,web,0,1,0,0,0,0,0,0,0,0,0,0,0,0,5,1,acquired
c:83265,CA,37.779281,-122.419236,94110,San Francisco,Singly,12/21/2010,2/1/2011,4/23/2012,0.1151,1.3397,1.8329,2.6712,24,2,8950000,2,1,0,0,0,0,analytics,0,0,0,0,0,0,0,0,0,1,1,0,0,0,7,1,acquired
c:23136,NY,40.753881,-73.978852,10173,New York,TxVia,1/1/2006,10/1/2007,10/26/2010,1.7479,4.8192,4.0027,4.8192,8,4,55350000,2,0,1,0,0,0,finance,0,0,0,0,0,0,0,0,0,1,1,1,1,1,4,1,acquired
c:54066,CA,37.406914,-122.09037,94043,Mountain View,Blue Vector Systems,1/1/2002,9/21/2005,9/21/2005,3.7233,3.7233,,,1,1,4000000,0,1,0,0,0,0,public_relations,0,0,0,0,0,0,0,0,0,1,0,1,0,0,3,1,closed
c:17219,IL,41.878984,-87.637,60606,Chicago,Open Kernel Labs,1/1/2006,9/13/2007,7/6/2012,1.6986,6.5151,3.2849,4.9315,3,5,10764323,3,0,0,0,0,1,software,1,0,0,0,0,0,0,0,0,0,1,0,0,0,2,1,acquired
c:23234,NJ,40.535316,-74.521435,8873,Somerset,Elanti Systems,1/1/2007,5/29/2008,5/29/2008,1.4082,1.4082,0,0,1,1,5500000,1,0,0,0,0,1,software,1,0,0,0,0,0,0,0,0,0,0,0,0,0,3,1,closed
c:70586,CA,37.779281,-122.419236,94105,San Francisco,Astrid,1/1/2008,4/13/2012,4/13/2012,4.2849,4.2849,2.4164,5.5151,7,1,400000,2,1,0,0,0,0,social,0,0,0,0,0,0,0,0,0,1,0,0,0,0,3,1,acquired
c:26612,CA,37.863464,-122.3153453,94710,Berkeley,Nordic Windpower,1/1/2007,10/2/2007,1/5/2010,0.7507,3.0137,,,3,3,54000000,0,1,0,0,0,0,cleantech,0,0,0,0,0,0,0,0,0,1,0,0,1,0,2.6667,1,closed
c:57923,GA,34.070958,-84.274733,30009,Alpharetta,Visiprise,1/1/1985,10/17/2005,10/17/2005,20.8055,20.8055,,,2,1,32000000,0,0,0,0,0,1,software,1,0,0,0,0,0,0,0,0,0,0,1,0,0,7,1,closed
c:58133,WA,39.78373,-100.445882,98104,Seattle,Hubspan,1/1/2000,10/14/2005,10/14/2005,5.789,5.789,,,1,1,13000000,0,0,0,0,0,1,software,1,0,0,0,0,0,0,0,0,0,0,0,0,1,4,1,acquired
c:5587,WA,47.614422,-122.192337,98004,Bellevue,iConclude,1/1/2005,2/1/2005,4/10/2006,0.0849,1.2712,,,5,3,12500000,0,0,0,0,0,1,software,1,0,0,0,0,0,0,0,0,0,1,1,0,0,2.3333,1,acquired
c:38338,CA,37.314002,-121.932365,95128,San Jose,41st Parameter,1/1/2004,5/8/2006,4/11/2012,2.3507,8.2822,1.0027,8.2849,16,4,38064570,2,1,0,0,0,0,security,0,0,0,0,0,0,0,0,0,1,0,1,1,1,3,1,acquired
c:4622,CA,37.748676,-122.415813,94110,San Francisco,Aardvark,7/1/2007,1/1/2007,10/1/2008,-0.4959,1.2548,2.1726,4.6,21,2,6000000,2,1,0,0,0,0,web,0,1,0,0,0,0,0,0,0,0,1,0,0,0,4,1,acquired
c:202,VA,38.030823,-78.48158,22902,Charlottesville,Hotelicopter,6/1/2006,11/17/2008,3/31/2011,2.4658,4.8329,0.5863,5.6164,4,2,5000000,6,0,0,0,0,1,web,0,1,0,0,0,0,0,0,0,0,1,1,0,0,1,0,closed
c:15652,VA,39.035298,-77.430125,20166,Dulles,Anystream,1/1/2000,1/1/2000,2/7/2007,0,7.1068,6.0055,10.9041,9,3,59000000,3,0,0,0,0,1,software,1,0,0,0,0,0,0,0,0,0,0,0,1,0,2,1,acquired
c:144825,IL,39.78373,-100.445882,60607,Chicago,CakeStyle,8/1/2011,8/13/2012,8/13/2012,1.0356,1.0356,0,1.0356,2,1,1000000,2,0,0,0,0,1,web,0,1,0,0,0,0,0,0,0,0,0,0,0,0,1,0,closed
c:9772,CA,37.758062,-122.418642,94110,San Francisco,Fluther,1/1/2007,9/21/2009,9/21/2009,2.7233,2.7233,0.9151,6.3096,5,1,600000,3,1,0,0,0,0,web,0,1,0,0,0,0,0,0,0,0,0,0,0,0,7,1,acquired
c:19101,CT,41.853615,-72.70375,6002,Bloomfield,Pocket Communications Northeast,1/1/2006,11/1/2008,2/20/2009,2.8356,3.1397,3.3781,3.7753,0,2,125000000,2,0,0,0,0,1,mobile,0,0,1,0,0,0,0,0,0,0,1,1,0,0,2,1,closed
c:1612,CA,34.01052,-118.495981,60401,Santa Monica,Goodreads,1/15/2007,11/1/2007,12/9/2009,0.7945,2.9014,3.0493,6.5233,11,2,2750000,3,1,0,0,0,0,web,0,1,0,0,0,0,0,0,0,0,1,0,0,0,4,1,acquired
c:17620,CA,37.3821368,-121.970505,95054,Santa Clara,Woven Systems,1/1/2003,12/1/2005,9/25/2007,2.9178,4.7342,,,1,2,30000000,0,1,0,0,0,0,network_hosting,0,0,0,0,0,0,0,0,0,1,1,1,0,0,2.5,1,acquired
c:43873,CA,37.433646,-121.886704,95035-6261,Milpitas,Kolorific,1/1/2003,1/5/2007,1/5/2007,4.0137,4.0137,,,0,1,7000000,0,1,0,0,0,0,semiconductor,0,0,0,0,0,0,0,0,0,1,0,0,1,0,1,0,closed
c:3986,CA,37.45604,-122.165399,94025,Menlo Park,Krugle,1/1/2006,5/31/2006,5/31/2006,0.411,0.411,0,2.5342,10,1,6100000,2,1,0,0,0,0,search,0,0,0,0,0,0,0,0,0,1,0,1,0,0,4,1,acquired
c:61592,CA,32.721834,-117.161797,92101,San Diego,Flud,10/1/2010,4/13/2011,9/1/2012,0.5315,1.9205,2.2548,2.9781,12,3,2100000,2,1,0,0,0,0,enterprise,0,0,0,1,0,0,0,0,0,0,0,0,0,0,4,1,closed
c:35236,CA,37.779281,-122.419236,94103,San Francisco,Chomp,9/9/2009,11/1/2009,3/11/2010,0.1452,0.5014,0.4959,3.011,10,2,2565000,3,1,0,0,0,0,mobile,0,0,1,0,0,0,0,0,0,0,1,0,0,0,3.5,1,acquired
c:31968,CA,37.584103,-122.366082,94010,Burlingame,Origen Therapeutics,1/1/1997,10/3/2007,10/3/2007,10.7589,10.7589,,,0,1,2000000,0,1,0,0,0,0,biotech,0,0,0,0,0,0,0,1,0,0,0,0,0,0,1,0,closed
c:27620,NC,35.76524,-78.731161,27606,Raleigh,Inlet Technologies,1/1/2003,7/26/2005,9/8/2008,2.5671,5.6904,2.0027,2.0027,3,3,22400000,1,0,0,0,0,1,network_hosting,0,0,0,0,0,0,0,0,0,1,0,1,1,0,3.6667,1,acquired
c:9816,NY,40.740441,-73.993376,10011,New York,ShopWiki,6/1/2005,7/1/2006,7/1/2006,1.0822,1.0822,6.0027,6.0027,12,1,6250000,1,0,1,0,0,0,ecommerce,0,0,0,0,0,0,1,0,0,0,1,0,0,0,1,0,acquired
c:52566,NY,40.750519,-73.993494,10001,New York,Fondu,2/1/2010,11/1/2011,11/1/2011,1.7479,1.7479,1,2.1096,4,1,575000,2,0,1,0,0,0,web,0,1,0,0,0,0,0,0,0,0,0,0,0,0,6,0,acquired
c:49236,MA,42.387597,-71.099497,2143,Somerville,Loudcaster,8/1/2009,8/1/2009,3/1/2010,0,0.5808,0,0,1,2,53000,1,0,0,1,0,0,web,0,1,0,0,0,0,0,0,0,0,0,0,0,0,1,1,closed
c:2234,CA,37.522281,-122.258139,94065,Redwood City,TwoFish,1/1/2006,12/1/2006,10/10/2008,0.9151,2.7753,3.0027,3.6466,6,2,9500000,2,1,0,0,0,0,ecommerce,0,0,0,0,0,0,1,0,0,0,1,1,0,0,2.5,1,acquired
c:3505,TX,40.694599,-73.990638,78701,Austin,Workstreamer,10/1/2009,1/1/2009,7/27/2010,-0.7479,0.8192,-1.7507,0.2521,7,2,3500000,2,0,0,0,1,0,enterprise,0,0,0,1,0,0,0,0,0,0,1,0,0,0,1,1,closed
c:56989,NY,40.729839,-73.991781,10003,New York,Qwiki,10/1/2009,7/10/2010,3/31/2011,0.7726,1.4959,-0.5863,3.7534,14,3,10500000,3,0,1,0,0,0,photo_video,0,0,0,0,0,0,0,0,0,1,1,0,0,0,6.3333,1,acquired
c:28482,CA,37.54827,-121.988572,94538,Fremont,Redwood Systems,1/1/2008,10/3/2008,5/30/2012,0.7562,4.4137,2.7836,4.0027,14,4,34250000,2,1,0,0,0,0,cleantech,0,0,0,0,0,0,0,0,0,1,1,1,1,0,2.25,1,acquired
c:40324,MA,42.37564,-71.2358,2451,Waltham,Artisan Pharma,1/1/2006,9/6/2006,7/20/2010,0.6795,4.5507,,,2,5,85381111,0,0,0,1,0,0,biotech,0,0,0,0,0,0,0,1,0,0,1,1,1,0,4.6667,1,acquired
c:1595,MD,39.436844,-76.618704,21093,Timonium,Bill Me Later,1/1/2000,3/1/2006,12/1/2007,6.1671,7.9205,8.0055,11.2548,6,3,100000000,3,0,0,0,0,1,web,0,1,0,0,0,0,0,0,0,0,1,0,0,0,2.5,1,acquired
c:31294,PA,40.441694,-79.990086,15213,Pittsburgh,Bueda,1/4/2009,1/1/2008,7/1/2010,-1.011,1.4877,0.4055,1.3205,3,2,125000,2,0,0,0,0,1,advertising,0,0,0,0,1,0,0,0,0,0,0,0,0,0,1,1,closed
c:43875,VA,38.958402,-77.357974,20191,Reston,Defywire,1/1/2003,4/26/2005,3/27/2007,2.3178,4.2356,-0.3342,-0.3342,2,2,10600000,1,0,0,0,0,1,mobile,0,0,1,0,0,0,0,0,0,0,0,1,0,0,3,1,closed
c:16562,CA,37.554214,-121.977451,94538,Fremont,Silicon Clocks,1/1/2004,6/2/2006,6/8/2009,2.4192,5.4384,2.0027,2.0027,2,3,26100000,1,1,0,0,0,0,semiconductor,0,0,0,0,0,0,0,0,0,1,0,1,0,0,3.5,1,acquired
c:18075,NY,40.762674,-73.9821315,10019,New York,TheMarkets,1/1/2000,7/12/2007,7/12/2007,7.5315,7.5315,10.7342,10.7342,2,1,30000000,1,0,1,0,0,0,web,0,1,0,0,0,0,0,0,0,0,0,0,0,0,5,1,acquired
c:86120,IL,41.875555,-87.624421,60606,Chicago,Netgamix Inc,9/24/2010,10/15/2011,7/1/2012,1.0575,1.7699,1.0301,1.1123,6,3,132885,2,0,0,0,0,1,games_video,0,0,0,0,0,1,0,0,0,0,0,0,0,0,1,1,closed
c:12173,CA,37.55911,-122.303493,95054,Santa Clara,Sentrigo,10/1/2006,5/8/2007,12/21/2010,0.6,4.2247,-0.7479,4.4767,9,3,9500000,2,1,0,0,0,0,software,1,0,0,0,0,0,0,0,0,0,1,1,1,0,2,1,acquired
c:44650,CA,37.440682,-122.123103,94303,Palo Alto,Netli,1/1/2000,2/13/2006,2/13/2006,6.1233,6.1233,6.0055,6.0055,9,1,18000000,1,1,0,0,0,0,network_hosting,0,0,0,0,0,0,0,0,0,1,0,0,0,0,7,1,acquired
c:70021,OH,39.099909,-84.504243,45202,Cincinnati,Define My Style,2/1/2010,12/2/2011,12/2/2011,1.8329,1.8329,1.7479,1.7479,4,1,690000,1,0,0,0,0,1,web,0,1,0,0,0,0,0,0,0,0,0,0,0,0,3,1,closed
c:17660,GA,33.749099,-84.390185,30305,Atlanta,Firethorn,1/1/2001,3/1/2006,1/2/2007,5.1644,6.0055,,,1,3,25131611,0,0,0,0,0,1,mobile,0,0,1,0,0,0,0,0,0,0,0,1,0,0,1,1,acquired
c:51745,CA,37.404788,-121.940842,95134,San Jose,Wellcore,1/1/2007,7/12/2010,7/12/2010,3.5288,3.5288,,,1,1,2000000,0,1,0,0,0,0,hardware,0,0,0,0,0,0,0,0,0,1,0,0,0,0,1,1,closed
c:25324,MA,42.3634664,-71.0786638,2142,Cambridge,Taligen Therapeutics,1/1/2004,8/1/2005,8/23/2010,1.5836,6.6466,5.0055,7.0877,4,3,78750000,2,0,0,1,0,0,biotech,0,0,0,0,0,0,0,1,0,0,1,1,0,0,3.5,1,acquired
c:77,CA,37.551441,-122.291435,94403,San Mateo,Adap.tv,11/1/2006,2/1/2007,3/28/2011,0.2521,4.4055,3.3151,6.7918,27,5,48500000,3,1,0,0,0,0,advertising,0,0,0,0,1,0,0,0,0,0,1,1,1,0,2.5,1,acquired
c:1895,CA,37.7795182,-122.3902619,94107,San Francisco,Current Media,1/1/2005,7/29/2005,7/29/2005,0.5726,0.5726,5.1671,8.0082,12,1,15000000,2,1,0,0,0,0,network_hosting,0,0,0,0,0,0,0,0,0,1,1,0,0,0,3,0,closed
c:16593,CA,37.3166526,-122.05074,95008,Campbell,ParAccel,1/1/2007,12/10/2007,4/25/2012,0.9397,5.3178,,,13,5,74000000,0,1,0,0,0,0,analytics,0,0,0,0,0,0,0,0,0,1,0,1,1,0,5.3333,1,acquired
c:16289,CA,37.783171,-122.392901,94107-4132,San Francisco,Arch Rock Corporation,1/1/2005,10/1/2005,5/2/2007,0.7479,2.3315,2,2,6,2,15000000,1,1,0,0,0,0,software,1,0,0,0,0,0,0,0,0,0,1,1,0,0,3,1,acquired
c:575,NY,37.09024,-95.712891,10014,New York,SpiralFrog,1/1/2004,1/1/2006,12/1/2007,2.0027,3.9178,3.0027,5.2192,8,3,45000000,3,0,1,0,0,0,games_video,0,0,0,0,0,1,0,0,0,0,1,0,0,0,1,0,closed
c:15562,CA,37.400367,-121.985711,95054,Santa Clara,Plusmo,6/1/2006,5/1/2008,5/1/2008,1.9178,1.9178,2.0027,2.0027,4,1,4410000,1,1,0,0,0,0,mobile,0,0,1,0,0,0,0,0,0,0,1,0,0,0,1,1,acquired
c:62432,VA,39.001619,-77.403201,20166,Sterling,ZipList,1/1/2010,1/1/2010,11/24/2010,0,0.8959,2,2.6767,9,2,4500000,2,0,0,0,0,1,web,0,1,0,0,0,0,0,0,0,0,1,1,0,0,2,1,acquired
c:8100,CA,37.788653,-122.401333,94105,San Francisco,Involver,1/1/2007,9/2/2008,10/14/2010,1.6712,3.7863,4.6685,5.6849,11,3,11040000,2,1,0,0,0,0,software,1,0,0,0,0,0,0,0,0,0,1,1,1,0,2.5,1,acquired
c:62262,CA,37.779281,-122.419236,94107,San Francisco,Lionside,1/1/2009,11/19/2010,11/19/2010,1.8822,1.8822,1.3288,2.9479,6,1,1600000,2,1,0,0,0,0,games_video,0,0,0,0,0,1,0,0,0,0,1,0,0,0,3,1,acquired
c:3686,NY,40.73901,-73.997259,10011,New York,Game Trust,1/1/2002,6/1/2005,11/15/2005,3.4164,3.874,7.7534,7.7534,3,2,9000000,1,0,1,0,0,0,software,1,0,0,0,0,0,0,0,0,0,0,1,0,0,4,1,acquired
c:82805,CA,37.5484187,-122.3151646,94403,San Mateo,Nearbuy Systems,4/1/2010,7/21/2011,11/23/2012,1.3041,2.6493,0,3.6767,4,3,3282327,2,1,0,0,0,0,analytics,0,0,0,0,0,0,0,0,0,1,0,0,0,0,2,1,acquired
c:196,CA,37.55818,-122.276454,94404,Foster City,Visible Path,1/1/2002,3/1/2006,3/1/2006,4.1644,4.1644,5.5836,11.3918,5,2,24700000,5,1,0,0,0,0,web,0,1,0,0,0,0,0,0,0,0,1,1,0,0,4,1,acquired
c:28114,GA,33.774486,-84.385448,30308,Atlanta,VT Silicon,1/1/2002,9/12/2007,11/19/2008,5.6986,6.8877,,,2,2,8800000,0,0,0,0,0,1,semiconductor,0,0,0,0,0,0,0,0,0,1,1,0,0,0,1,1,closed
c:13277,CA,34.0342337,-118.4536137,90025,Los Angeles,GetBack,9/1/2007,11/6/2008,11/6/2008,1.1836,1.1836,0.9178,0.9178,1,1,1700000,1,1,0,0,0,0,web,0,1,0,0,0,0,0,0,0,0,1,0,0,0,1,0,closed
c:63217,CA,37.835676,-122.263548,94609,Oakland,Slipstream,6/1/2010,8/31/2010,8/31/2010,0.2493,0.2493,0,0.7781,1,1,20000,2,1,0,0,0,0,web,0,1,0,0,0,0,0,0,0,0,0,0,0,0,1,0,closed
c:2534,CA,37.5541073,-121.9756765,94538,Fremont,HipLogic,1/1/2005,2/8/2008,12/2/2009,3.1041,4.9205,5.0027,8.3534,10,2,11500000,5,1,0,0,0,0,mobile,0,0,1,0,0,0,0,0,0,0,1,1,0,0,2.5,1,acquired
c:5264,CA,38.279431,-122.668452,94954,Petaluma,Dilithium Networks,1/1/2001,4/23/2003,6/3/2010,2.3068,9.4247,4.4986,11.4164,12,7,98170000,3,1,0,0,0,0,mobile,0,0,1,0,0,0,0,0,0,0,0,1,1,1,5.2,1,closed
c:58512,CA,37.7824533,-122.3879489,94107,San Francisco,Yobongo,1/1/2010,3/23/2011,3/23/2011,1.2219,1.2219,0.7479,2.6849,2,1,1350000,3,1,0,0,0,0,web,0,1,0,0,0,0,0,0,0,0,0,0,0,0,10,1,acquired
c:12957,IL,41.8851542,-87.6223183,60601,Chicago,Brickfish,11/1/2005,7/16/2010,7/16/2010,4.7068,4.7068,2.989,6.863,17,1,940261,2,0,0,0,0,1,software,1,0,0,0,0,0,0,0,0,0,1,0,0,0,1,1,acquired
c:34499,MA,42.360253,-71.058291,2109,Boston,MyEnergy,6/4/2007,2/1/2009,2/3/2011,1.6658,3.6712,3.6658,3.6712,12,2,4000000,3,0,0,1,0,0,web,0,1,0,0,0,0,0,0,0,0,1,0,0,0,3,1,acquired
c:34028,CA,37.36883,-122.03635,94085,Sunnyvale,LikeList,1/1/2008,12/15/2009,12/15/2009,1.9562,1.9562,1.0027,1.0027,5,1,5000000,1,1,0,0,0,0,web,0,1,0,0,0,0,0,0,0,0,1,0,0,0,1,0,closed
c:23335,VA,38.881717,-77.089398,22201,Arlington,Social Collective,4/17/2009,4/18/2009,4/18/2009,0.0027,0.0027,0.5836,0.5836,3,1,20000,1,0,0,0,0,1,web,0,1,0,0,0,0,0,0,0,0,0,0,0,0,1,0,closed
c:30526,WA,47.60732,-122.335746,98101,Seattle,Pure Networks,1/1/2002,1/11/2006,1/11/2006,4.0301,4.0301,3.0027,3.0027,5,1,12500000,1,0,0,0,0,1,network_hosting,0,0,0,0,0,0,0,0,0,1,0,1,0,0,3,1,acquired
c:42519,CO,39.568064,-104.977831,80112,Centennial,Internet Pawn,1/1/2009,5/5/2010,8/27/2013,1.3397,4.6548,1.3589,1.3753,0,5,7228704,2,0,0,0,0,1,finance,0,0,0,0,0,0,0,0,0,1,1,0,0,0,2,1,closed
c:48376,IL,41.940611,-87.835972,60631,Chicago,NeuroTherapeutics Pharma,1/1/2006,5/20/2010,12/15/2011,4.3836,5.9562,5.4986,5.4986,5,2,55000000,1,0,0,0,0,1,biotech,0,0,0,0,0,0,0,1,0,0,0,1,0,0,4,1,closed
c:15693,CA,37.560155,-122.285588,94404,San Mateo,Provade,1/1/2004,1/23/2006,8/11/2010,2.063,6.6137,,,5,4,15180000,0,1,0,0,0,0,enterprise,0,0,0,1,0,0,0,0,0,0,1,0,1,0,1,1,acquired
c:47587,CA,37.404788,-121.940842,95134,San Jose,Infineta Systems,1/1/2008,5/7/2010,6/6/2011,2.3479,3.4301,2.3562,4.0027,4,2,30000000,2,1,0,0,0,0,software,1,0,0,0,0,0,0,0,0,0,1,1,0,0,2.5,1,closed
c:1669,TX,30.268236,-97.740651,78701,Austin,Challenge Games,1/1/2006,7/10/2008,9/1/2008,2.5233,2.6685,3.0027,4.4247,11,2,14500000,3,0,0,0,1,0,network_hosting,0,0,0,0,0,0,0,0,0,1,1,1,0,0,1.5,1,acquired
c:421,CA,37.758229,-122.439512,94114,San Francisco,Crowd Factory,1/1/2009,1/26/2011,1/26/2011,2.0685,2.0685,2.5808,4.3671,6,1,6500000,3,1,0,0,0,0,advertising,0,0,0,0,1,0,0,0,0,0,0,0,0,0,3,1,acquired
c:155621,TN,35.149022,-90.051628,38103-4717,Memphis,Friendsignia,1/29/2012,1/29/2012,1/29/2012,0,0,0,0,2,1,15000,1,0,0,0,0,1,web,0,1,0,0,0,0,0,0,0,0,0,0,0,0,1,0,closed
c:40782,NY,40.730646,-73.986614,10013,New York,Vizibility,7/1/2009,3/24/2010,2/6/2013,0.7288,3.6055,1.589,4.1041,5,5,4705910,3,0,1,0,0,0,mobile,0,0,1,0,0,0,0,0,0,0,0,0,0,0,3,1,acquired
c:51306,CA,37.5783263,-122.3485679,94010-4031,Burlingame,OpenFeint,1/1/2008,10/21/2010,10/21/2010,2.8055,2.8055,3.0027,4.6493,6,1,3000000,2,1,0,0,0,0,games_video,0,0,0,0,0,1,0,0,0,0,0,0,0,0,1,1,acquired
c:1088,NY,40.743808,-73.983626,10016,New York,Tumblr,2/1/2007,10/31/2007,1/1/2012,0.7452,4.9178,3.0438,6.8411,30,6,125250000,5,0,1,0,0,0,web,0,1,0,0,0,0,0,0,0,0,1,1,1,1,3.5,1,acquired
c:34522,NY,40.730646,-73.986614,10013,New York,Hotlist,1/1/2008,5/1/2008,1/1/2012,0.3315,4.0027,2.3644,3.6685,8,4,1449998,3,0,1,0,0,0,social,0,0,0,0,0,0,0,0,0,1,0,0,0,0,1,1,closed
c:83692,MA,42.3751,-71.105616,2139,Cambridge,Crashlytics,2/1/2011,10/13/2011,4/10/2012,0.6959,1.189,0.663,2.6247,5,2,6000000,3,0,0,1,0,0,mobile,0,0,1,0,0,0,0,0,0,0,1,0,0,0,6,1,acquired
c:43831,MN,45.006515,-93.46651,55441,Plymouth,BridgePoint Medical,1/1/2005,1/23/2007,3/25/2011,2.0603,6.2301,,,7,3,28200000,0,0,0,0,0,1,medical,0,0,0,0,0,0,0,0,0,1,0,1,1,0,3,1,acquired
c:28428,CA,37.777741,-122.412198,94104,San Francisco,Recurve,8/1/2005,9/23/2008,6/17/2010,3.1479,4.8795,5.0027,5.0027,5,2,14000000,1,1,0,0,0,0,software,1,0,0,0,0,0,0,0,0,0,1,0,0,0,2,1,acquired
c:17974,TX,30.35504,-97.801083,78730,Austin,Conformity,7/1/2007,1/28/2009,1/28/2009,1.5808,1.5808,2.2521,2.5342,14,1,3000000,2,0,0,0,1,0,enterprise,0,0,0,1,0,0,0,0,0,0,1,0,0,0,1,0,closed
c:81475,WA,39.78373,-100.445882,98104,Seattle,Moprise,1/1/2010,7/8/2011,10/7/2011,1.5151,1.7644,0.7479,0.7479,6,2,2238055,1,0,0,0,0,1,enterprise,0,0,0,1,0,0,0,0,0,0,0,0,0,0,1,1,closed
c:76543,CA,37.779281,-122.419236,94108,San Francisco,Plizy,9/1/2010,5/19/2011,12/13/2012,0.7123,2.2849,1.9507,2.2822,5,2,5200000,2,1,0,0,0,0,photo_video,0,0,0,0,0,0,0,0,0,1,1,0,0,0,1,1,closed
c:84161,PA,40.0708709,-75.302716,19428,Conshohocken,ShopRunner,1/1/2010,8/19/2013,8/19/2013,3.6329,3.6329,1.1479,3.7781,4,1,75000000,4,0,0,0,0,1,ecommerce,0,0,0,0,0,0,1,0,0,0,0,0,0,0,1,0,acquired
c:810,MA,42.296111,-71.238524,2494,Needham,RatePoint,9/1/2006,1/29/2007,8/20/2010,0.411,3.9699,4.2521,5.7671,13,4,24500000,4,0,0,1,0,0,software,1,0,0,0,0,0,0,0,0,0,1,1,1,0,2.5,1,closed
c:16488,CA,33.63776,-117.855989,92660,Newport Beach,Digital Performance,1/1/2002,11/27/2006,2/5/2010,4.9068,8.1014,,,3,3,4476171,0,1,0,0,0,0,advertising,0,0,0,0,1,0,0,0,0,0,1,0,0,0,2,1,closed
c:11042,TX,30.2729209,-97.7443863,78701,Austin,Gowalla,8/28/2007,2/27/2008,1/28/2010,0.5014,2.4219,2.8192,5.8849,21,3,10400001,3,0,0,0,1,0,web,0,1,0,0,0,0,0,0,0,0,1,1,0,0,6,1,acquired
c:17633,CO,40.138979,-105.124465,80501,Longmont,Copan Systems,1/1/2002,3/8/2006,2/17/2009,4.1836,7.1342,5.0027,5.0027,8,3,68400000,1,0,0,0,0,1,network_hosting,0,0,0,0,0,0,0,0,0,1,0,0,1,1,6.5,1,acquired
c:3187,CA,37.512318,-122.200914,94063,Redwood City,Replay Solutions,1/1/2004,12/5/2006,8/18/2008,2.9288,4.6329,,,13,2,15200000,0,1,0,0,0,0,software,1,0,0,0,0,0,0,0,0,0,1,1,0,0,2,1,acquired
c:164922,NY,40.728425,-73.999882,10012,New York,Turf Geography Club,1/1/2011,8/15/2011,8/2/2012,0.6192,1.5863,,,2,2,890000,0,0,1,0,0,0,mobile,0,0,1,0,0,0,0,0,0,0,0,0,0,0,3,1,closed
c:81886,CA,37.779281,-122.419236,94108,San Francisco,skyrockit,1/1/2001,7/12/2011,7/12/2011,10.5315,10.5315,,,0,1,2600000,0,1,0,0,0,0,mobile,0,0,1,0,0,0,0,0,0,0,0,0,0,0,1,1,closed
c:54585,IL,41.800255,-88.149362,60563,Naperville,Cartavi,1/1/2009,11/13/2012,11/13/2012,3.8685,3.8685,3.8301,4.0877,7,1,1226270,2,0,0,0,0,1,enterprise,0,0,0,1,0,0,0,0,0,0,0,0,0,0,1,1,acquired
c:11507,CA,34.147047,-118.148896,91101,Pasadena,Cramster,1/1/2002,9/25/2008,4/14/2010,6.737,8.2877,6.7534,6.7534,5,2,9000000,1,1,0,0,0,0,web,0,1,0,0,0,0,0,0,0,0,1,1,0,0,1,0,acquired
c:24860,CA,37.317847,-121.948469,95128,San Jose,Certify Data Systems,1/1/2004,8/25/2008,2/15/2012,4.6521,8.1288,6.0055,6.0055,4,4,7210210,1,1,0,0,0,0,enterprise,0,0,0,1,0,0,0,0,0,0,1,1,0,0,1,0,acquired
c:148750,CA,37.779281,-122.419236,94103,San Francisco,Wheelz,1/1/2011,9/28/2011,2/22/2012,0.7397,1.1425,0.5808,0.5808,15,2,15700000,1,1,0,0,0,0,automotive,0,0,0,0,0,0,0,0,0,1,1,0,0,0,3,1,acquired
c:45611,MA,42.37564,-71.2358,2451,Waltham,CentrePath,1/1/2000,9/6/2005,4/24/2006,5.6849,6.3151,5.0055,5.0055,4,2,15050000,1,0,0,1,0,0,software,1,0,0,0,0,0,0,0,0,0,0,0,1,0,2.5,1,acquired
c:4106,CA,37.8093381,-122.4166061,94111,San Francisco,VoxPop Network Corporation,8/1/2006,5/1/2007,5/1/2009,0.7479,2.7507,1.5836,4.5315,5,2,3500000,2,1,0,0,0,0,games_video,0,0,0,0,0,1,0,0,0,0,1,1,0,0,3,1,acquired
c:17775,CA,37.4384108,-121.9240273,95035,Milpitas,OpVista,1/1/2000,6/22/2006,5/7/2007,6.4767,7.3507,5.0055,5.0055,2,2,43000000,1,1,0,0,0,0,software,1,0,0,0,0,0,0,0,0,0,0,0,1,1,1,1,closed
c:144,CA,37.775196,-122.419204,94105,San Francisco,Metaweb Technologies,1/1/2005,3/1/2006,1/15/2008,1.1616,3.0384,3.2658,5.5397,7,2,57000000,2,1,0,0,0,0,web,0,1,0,0,0,0,0,0,0,0,1,1,0,0,3.5,1,acquired
c:13046,CA,37.788115,-122.397141,94105,San Francisco,DocVerse,9/1/2007,7/23/2008,7/23/2008,0.8932,0.8932,0.8329,4.2137,8,1,1300000,4,1,0,0,0,0,web,0,1,0,0,0,0,0,0,0,0,0,0,0,0,4,1,acquired
c:40,CA,32.902266,-117.20834,92121,San Diego,Veoh,1/1/2004,7/1/2005,6/3/2008,1.4986,4.4247,4.0877,9.737,15,4,69750000,4,1,0,0,0,0,games_video,0,0,0,0,0,1,0,0,0,0,1,1,1,1,5,1,acquired
c:26460,MA,42.341899,-71.065924,2118,Boston,BzzAgent,1/1/2001,1/1/2004,1/1/2006,3,5.0027,9.6247,10.3945,16,2,14500000,2,0,0,1,0,0,advertising,0,0,0,0,1,0,0,0,0,0,0,1,0,0,2,1,acquired
c:15887,CA,37.40006,-122.049689,94043,Mountain View,Hammerhead Systems,1/1/2002,1/31/2006,8/1/2007,4.0849,5.5836,,,2,2,48000000,0,1,0,0,0,0,hardware,0,0,0,0,0,0,0,0,0,1,0,0,1,1,6,1,closed
c:36742,PA,40.418851,-79.904163,15218,Pittsburgh,ThermalTherapeuticSystems,6/1/2006,12/1/2009,11/9/2011,3.5041,5.4438,,,3,2,3508462,0,0,0,0,0,1,medical,0,0,0,0,0,0,0,0,0,1,1,0,0,0,3,1,closed
c:3962,CA,37.778613,-122.395289,94404,San Mateo,GuardianEdge Technologies,1/1/2002,6/6/2005,7/23/2007,3.4301,5.5589,7.8384,7.8384,10,3,19500000,1,1,0,0,0,0,software,1,0,0,0,0,0,0,0,0,0,1,1,0,0,3.3333,1,acquired
c:162116,CA,34.019657,-118.487549,90405,Santa Monica,Gradient X,1/1/2012,6/20/2012,6/20/2012,0.4685,0.4685,1.1041,1.6795,5,1,3750000,3,1,0,0,0,0,mobile,0,0,1,0,0,0,0,0,0,0,0,0,0,0,9,1,acquired
c:55044,IL,41.817807,-88.173402,60555,Warrenville,ezzai - how to arabia,8/1/2010,8/1/2010,8/1/2010,0,0,,,1,1,45000000,0,0,0,0,0,1,web,0,1,0,0,0,0,0,0,0,0,0,0,0,0,2,0,closed
c:7207,NC,35.79181,-78.74123,27607,Raleigh,rPath,4/1/2005,1/24/2006,10/22/2010,0.8164,5.5616,4.5562,7.9863,8,4,32500000,3,0,0,0,0,1,enterprise,0,0,0,1,0,0,0,0,0,0,1,1,1,1,2.75,1,closed
c:863,PA,40.063476,-75.457492,19312,Berwyn,Boomi,3/1/2000,1/1/2002,7/1/2008,1.8384,8.3397,5.674,13.5562,4,2,4900000,5,0,0,0,0,1,enterprise,0,0,0,1,0,0,0,0,0,0,0,1,0,0,1.5,1,acquired
c:16066,CA,37.382376,-122.037607,94086,Sunnyvale,VoloMedia,1/1/2005,4/20/2007,3/18/2008,2.2986,3.211,3.5945,4.5753,4,2,12000000,3,1,0,0,0,0,advertising,0,0,0,0,1,0,0,0,0,0,0,1,1,0,2,1,closed
c:220,CA,37.766909,-122.406676,94103,San Francisco,Flixster,1/20/2006,2/1/2006,4/4/2008,0.0329,2.2055,4.5151,6.9123,12,3,7175000,6,1,0,0,0,0,web,0,1,0,0,0,0,0,0,0,0,1,1,0,0,2.6667,1,acquired
c:54,CA,37.793148,-122.402567,94104,San Francisco,Wesabe,12/1/2005,2/1/2007,6/1/2007,1.1699,1.4986,0.0849,5.3863,3,2,4700000,4,1,0,0,0,0,web,0,1,0,0,0,0,0,0,0,0,1,0,0,0,1.5,1,closed
c:9730,CA,26.0524615,-80.1378809,95037,Morgan Hill,OfferLounge,1/1/2008,1/1/2008,1/1/2008,0,0,,,3,1,120000,0,1,0,0,0,0,public_relations,0,0,0,0,0,0,0,0,0,1,0,0,0,0,2,0,closed
c:3122,CA,37.393679,-122.079017,94041,Mountain View,NeoEdge Networks,5/2/2002,6/8/2007,12/20/2010,5.1041,8.6411,5.6712,6.8986,10,3,10000000,2,1,0,0,0,0,advertising,0,0,0,0,1,0,0,0,0,0,0,1,0,0,1.6667,0,acquired
c:36579,TX,30.435079,-97.770139,78729,Austin,SemiSouth Laboratories,7/1/2000,6/14/2005,10/22/2010,4.9562,10.3151,,,0,4,39000000,0,0,0,0,1,0,semiconductor,0,0,0,0,0,0,0,0,0,1,1,0,0,0,3,0,closed
c:43327,MA,42.345927,-71.552287,01752-4603,Marlborough,Camiant,1/1/2003,3/29/2005,1/11/2007,2.2411,4.0301,,,3,2,16100000,0,0,0,1,0,0,software,1,0,0,0,0,0,0,0,0,0,0,1,1,0,2.5,1,acquired
c:1789,CA,37.795191,-122.430411,94115,San Francisco,NuConomy,1/1/2006,4/1/2007,2/1/2008,1.2466,2.0849,2.4986,5.3233,4,2,3300000,3,1,0,0,0,0,advertising,0,0,0,0,1,0,0,0,0,0,1,0,0,0,2,1,acquired
c:38339,CA,37.779281,-122.419236,94110,San Francisco,Flowtown,2/1/2009,8/25/2010,8/25/2010,1.5616,1.5616,1.2438,1.7726,6,1,750000,3,1,0,0,0,0,analytics,0,0,0,0,0,0,0,0,0,1,0,0,0,0,9,1,acquired
c:13410,GA,33.776834,-84.3895875,30308,Atlanta,GlobalCrypto,6/1/2006,11/11/2008,11/11/2008,2.4493,2.4493,,,0,2,1000000,0,0,0,0,0,1,software,1,0,0,0,0,0,0,0,0,0,0,0,0,0,2,0,closed
c:43915,NY,40.730646,-73.986614,10154,New York,Bioenvision,1/1/1996,4/30/2007,4/30/2007,11.3342,11.3342,,,3,1,7410000,0,0,1,0,0,0,biotech,0,0,0,0,0,0,0,1,0,0,0,0,0,0,3,1,closed
c:37712,CA,37.404788,-121.940842,95134,San Jose,Teranetics,1/1/2000,11/21/2006,5/27/2010,6.8932,10.4082,,,5,3,52800000,0,1,0,0,0,0,semiconductor,0,0,0,0,0,0,0,0,0,1,0,0,1,0,5.3333,1,acquired
c:3288,CA,33.97279,-118.427578,90094,Playa Vista,WebVisible,1/1/2001,9/1/2005,2/11/2010,4.6685,9.1178,9.7534,12.8027,33,3,37000000,4,1,0,0,0,0,software,1,0,0,0,0,0,0,0,0,0,1,1,1,0,1.3333,1,closed
c:10179,CA,37.7983181,-122.4000032,94111,San Francisco,GoodGuide,12/1/2007,1/19/2009,8/26/2011,1.137,3.737,2.463,3.2164,14,3,14229998,3,1,0,0,0,0,web,0,1,0,0,0,0,0,0,0,0,1,1,0,0,3,1,acquired
c:33869,CA,37.320309,-122.05004,95014,Cupertino,ViVu,1/1/2009,9/21/2009,6/9/2011,0.7205,2.4356,0.7671,2.7918,7,2,3000000,2,1,0,0,0,0,messaging,0,0,0,0,0,0,0,0,0,1,1,1,0,0,2.5,1,acquired
c:21528,NY,40.730646,-73.986614,10013,New York,avVenta,1/1/2005,1/14/2009,1/14/2009,4.0384,4.0384,6.0027,6.0027,10,1,20000000,1,0,1,0,0,0,advertising,0,0,0,0,1,0,0,0,0,0,1,0,0,0,1,0,acquired
c:30820,RI,51.43247,-2.664213,2906,Providence,DiJiPOP,11/1/2008,8/1/2009,12/6/2010,0.7479,2.0959,1.6548,2.0959,6,2,2000000,3,0,0,0,0,1,advertising,0,0,0,0,1,0,0,0,0,0,0,0,0,0,1.5,1,acquired
c:25782,DC,38.897976,-77.028561,20005,Washington,Layer 7 Technologies,1/1/2003,10/26/2006,2/2/2009,3.8192,6.0932,9.0055,9.7726,3,2,19900000,2,0,0,0,0,1,software,1,0,0,0,0,0,0,0,0,0,0,1,0,0,2,1,acquired
c:278,CA,37.781689,-122.391061,94107,San Francisco,DeliveryEdge,9/1/2006,12/1/2007,12/1/2007,1.2493,1.2493,2.589,2.589,6,1,1500000,1,1,0,0,0,0,ecommerce,0,0,0,0,0,0,1,0,0,0,0,0,0,0,1,0,closed
c:75500,CA,37.779281,-122.419236,94105,San Francisco,Solmentum,7/1/2009,7/1/2009,7/1/2009,0,0,1.2521,1.2521,4,1,325000,1,1,0,0,0,0,cleantech,0,0,0,0,0,0,0,0,0,1,0,0,0,0,4,0,closed
c:67806,CA,37.787249,-122.3990501,94105,San Francisco,Pipewise,9/1/2010,2/17/2011,2/17/2011,0.463,0.463,1.2795,1.8192,16,1,3500000,2,1,0,0,0,0,enterprise,0,0,0,1,0,0,0,0,0,0,1,0,0,0,5,1,closed
c:1212,WA,47.602873,-122.336132,98104,Seattle,GridNetworks,1/1/2004,1/1/2006,5/20/2008,2.0027,4.3863,1.5836,4.1918,7,4,30000000,2,0,0,0,0,1,network_hosting,0,0,0,0,0,0,0,0,0,1,1,1,0,0,2,1,closed
c:31754,CA,39.78373,-100.445882,94043-1107,Mountain View,MAP Pharmaceuticals,1/1/2003,3/28/2007,3/28/2007,4.2384,4.2384,,,1,1,50000000,0,1,0,0,0,0,biotech,0,0,0,0,0,0,0,1,0,0,0,0,0,1,6,1,acquired
c:25307,NY,40.745003,-73.983229,10016,New York,"ORCA, Inc.",1/1/2008,6/21/2009,6/21/2009,1.4712,1.4712,1.0027,1.4712,5,1,2000000,2,0,1,0,0,0,ecommerce,0,0,0,0,0,0,1,0,0,0,1,0,0,0,3,1,acquired
c:1870,CA,37.52845,-122.263721,94065,Redwood City,Amobee,5/1/2005,11/1/2006,3/1/2011,1.5041,5.8356,6.1699,8.3534,25,6,72000000,2,1,0,0,0,0,advertising,0,0,0,0,1,0,0,0,0,0,1,1,1,1,2.3333,1,acquired
c:27285,CA,34.045919,-118.16525,91754,Monterey Park,KOTURA,1/1/2004,9/7/2005,11/5/2009,1.6849,5.8493,8.4219,8.4219,4,3,27690547,1,1,0,0,0,0,cleantech,0,0,0,0,0,0,0,0,0,1,0,1,1,1,4.5,1,acquired
c:48640,TX,33.068275,-96.711101,75023,Plano,Auvitek International,3/1/2004,5/9/2006,5/9/2006,2.189,2.189,,,32,1,9000000,0,0,0,0,1,0,semiconductor,0,0,0,0,0,0,0,0,0,1,0,1,0,0,4,1,closed
c:18470,CA,37.287285,-121.942932,94041,Mountain View,Outright,6/1/2008,11/1/2008,11/18/2009,0.4192,1.4658,3.1315,4.137,12,2,7500000,3,1,0,0,0,0,enterprise,0,0,0,1,0,0,0,0,0,0,1,0,0,0,3.5,1,acquired
c:21395,TX,30.271393,-97.748623,78701,Austin,Phurnace Software,1/1/2007,9/11/2007,7/1/2008,0.6932,1.4986,3.4164,3.4164,9,2,10000000,1,0,0,0,1,0,software,1,0,0,0,0,0,0,0,0,0,1,0,0,0,2,1,acquired
c:25132,CA,34.142973,-118.140553,91105,Pasadena,FastSoft,1/1/2006,6/11/2007,9/4/2012,1.4411,6.6795,2,2,7,4,5965000,1,1,0,0,0,0,software,1,0,0,0,0,0,0,0,0,0,1,0,0,0,1,0,acquired
c:72,CA,37.465645,-121.932202,94538,Fremont,GrandCentral,4/1/2006,1/1/2006,1/1/2006,-0.2466,-0.2466,-0.4082,7.4548,9,1,4000000,4,1,0,0,0,0,mobile,0,0,1,0,0,0,0,0,0,0,1,0,0,0,1,0,acquired
c:17429,MI,42.548008,-83.214753,48025,Bingham Farms,Speedshape,1/1/2003,2/20/2008,2/20/2008,5.1397,5.1397,7.0055,7.0055,2,1,5000000,1,0,0,0,0,1,advertising,0,0,0,0,1,0,0,0,0,0,0,0,0,0,1,0,closed
c:487,CA,37.32052,-121.948399,95128,San Jose,BlueLithium,1/1/2004,2/1/2005,2/1/2005,1.0877,1.0877,5.0959,7.3863,15,1,11500000,2,1,0,0,0,0,advertising,0,0,0,0,1,0,0,0,0,0,1,0,0,0,2,1,acquired
c:40665,IL,41.875555,-87.624421,60657,Chicago,Media Chaperone,1/1/2009,1/14/2010,2/24/2011,1.0356,2.1479,1.5808,1.5808,2,2,1050000,1,0,0,0,0,1,web,0,1,0,0,0,0,0,0,0,0,0,0,0,0,1,0,closed
c:2972,NY,40.7566658,-73.9827553,10036,New York,Giant Realm,1/1/2007,3/1/2008,5/8/2008,1.1644,1.3507,1.3507,3.3315,13,2,5500000,2,0,1,0,0,0,web,0,1,0,0,0,0,0,0,0,0,1,0,0,0,2,1,acquired
c:1832,PA,39.951311,-75.169522,10011,Philadelphia,Invite Media,2/1/2007,12/1/2007,12/1/2009,0.8301,2.8329,1.0877,3.337,17,3,5000000,4,0,0,0,0,1,advertising,0,0,0,0,1,0,0,0,0,0,1,0,0,0,1.6667,1,acquired
c:30173,CA,37.406914,-122.09037,94043,Mountain View,UpMo,1/1/2011,12/13/2009,8/17/2011,-1.0521,0.6247,-1.3589,1.663,11,2,3700000,3,1,0,0,0,0,enterprise,0,0,0,1,0,0,0,0,0,0,0,0,0,0,3,0,closed
c:17512,CA,36.9397206,-121.7768449,95019-2901,Freedom,Appscio,1/1/2006,3/20/2007,1/3/2009,1.2137,3.0082,,,4,2,7000000,0,1,0,0,0,0,software,1,0,0,0,0,0,0,0,0,0,1,0,0,0,2,0,closed
c:833,MA,42.375219,-71.056101,2129,Boston,Eons,1/1/2005,4/1/2006,3/1/2007,1.2466,2.1616,2,3.8137,14,2,32000000,4,0,0,1,0,0,network_hosting,0,0,0,0,0,0,0,0,0,1,1,1,0,0,3.5,1,closed
c:615,MA,42.358822,-71.104329,2142,Cambridge,LocaModa,1/1/2007,9/18/2007,3/25/2011,0.7123,4.2301,2.6685,3.0575,8,3,7900000,2,0,0,1,0,0,advertising,0,0,0,0,1,0,0,0,0,0,1,0,0,0,2,0,acquired
c:1731,CA,37.392443,-122.072517,94110,San Francisco,Meraki,4/1/2006,12/1/2006,7/10/2012,0.6685,6.2795,2.7945,7.4493,16,5,80000000,3,1,0,0,0,0,network_hosting,0,0,0,0,0,0,0,0,0,1,1,1,1,1,2.25,1,acquired
c:39755,TX,30.280148,-97.749908,78701,Austin,MPOWER Mobile,1/1/2005,10/28/2009,10/28/2009,4.8247,4.8247,0.2466,0.2466,1,1,5000000,1,0,0,0,1,0,mobile,0,0,1,0,0,0,0,0,0,0,0,0,0,0,1,1,closed
c:134,WA,47.638456,-122.356965,98109,Seattle,Haute Secure,1/1/2006,1/1/2007,3/9/2009,1,3.1863,2.4301,7.6247,5,2,2100000,3,0,0,0,0,1,security,0,0,0,0,0,0,0,0,0,1,1,0,0,0,1.5,1,acquired
c:6313,MD,39.116333,-77.181307,20814,Bethesda,Intelliworks,12/1/2004,2/14/2005,4/24/2009,0.2055,4.3973,3.4164,3.4164,6,4,22250000,1,0,0,0,0,1,enterprise,0,0,0,1,0,0,0,0,0,0,1,1,1,1,2.5,1,acquired
c:107746,OR,45.520247,-122.674195,97209,Portland,Meridian,3/1/2011,9/14/2011,8/30/2012,0.5397,1.5014,-14.1699,2.2082,6,2,1975000,2,0,0,0,0,1,enterprise,0,0,0,1,0,0,0,0,0,0,0,0,0,0,3,0,acquired
c:2566,NY,40.723652,-73.985281,10016,New York,Kluster,1/1/2008,1/1/2008,1/1/2008,0,0,3.5918,4.326,0,1,1000000,2,0,1,0,0,0,web,0,1,0,0,0,0,0,0,0,0,0,0,0,0,1,1,acquired
c:47440,PA,40.602206,-75.471279,18106,Allentown,International Battery,1/1/2008,5/6/2010,5/6/2010,2.3452,2.3452,,,0,1,35000000,0,0,0,0,0,1,cleantech,0,0,0,0,0,0,0,0,0,1,0,0,1,0,1,0,closed
c:44,NY,37.480999,-122.173887,10016,New York,Jingle Networks,9/1/2005,10/1/2005,12/28/2009,0.0822,4.326,3.663,5.611,12,7,88651133,5,0,1,0,0,0,mobile,0,0,1,0,0,0,0,0,0,0,1,1,1,1,3.1667,1,acquired
c:30527,MA,42.5656454,-71.3222696,01862-2000,North Billerica,SemEquip,1/1/2000,8/4/2005,8/4/2005,5.5945,5.5945,,,3,1,26000000,0,0,0,1,0,0,semiconductor,0,0,0,0,0,0,0,0,0,1,0,0,0,0,2,1,acquired
c:83176,CA,34.054935,-118.244476,90017,Los Angeles,ItsGoinOn,5/1/2010,1/1/2011,1/1/2011,0.6712,0.6712,0,0.7562,3,1,100000,2,1,0,0,0,0,games_video,0,0,0,0,0,1,0,0,0,0,0,0,0,0,1,0,closed
c:20488,CO,39.750152,-104.996438,80202,Denver,mSnap,6/1/2005,6/1/2006,6/1/2006,1,1,3.811,4.9178,6,1,5000000,3,0,0,0,0,1,mobile,0,0,1,0,0,0,0,0,0,0,1,0,0,0,1,1,acquired
c:24570,GA,34.062588,-84.16923,30097,Duluth,Biofisica,1/1/2000,10/31/2006,4/21/2008,6.8356,8.3096,,,5,2,7300000,0,0,0,0,0,1,biotech,0,0,0,0,0,0,0,1,0,0,1,0,0,0,3,1,closed
c:20506,CA,37.406914,-122.09037,94043,Mountain View,Ardian,1/1/2003,1/1/2005,3/23/2009,2.0027,6.2274,4.0027,10.7616,8,3,64080000,2,1,0,0,0,0,biotech,0,0,0,0,0,0,0,1,0,0,1,1,1,0,4,1,acquired
c:69279,RI,51.43247,-2.664213,2903,Providence,Tracelytics,7/1/2010,11/3/2011,3/22/2012,1.3425,1.726,-0.0822,1.7205,8,2,5800000,2,0,0,0,0,1,enterprise,0,0,0,1,0,0,0,0,0,0,1,0,0,0,4,1,acquired
c:23192,CA,37.791388,-122.392148,94105,San Francisco,Canopy Financial,1/1/2004,1/1/2008,10/1/2009,4.0027,5.7534,5.9233,6,6,4,89500000,2,1,0,0,0,0,finance,0,0,0,0,0,0,0,0,0,1,0,1,1,0,1,1,closed
c:38,CA,37.788482,-122.409173,94102,San Francisco,Kyte,12/1/2006,7/1/2007,3/1/2012,0.5808,5.2521,3.0877,4.1699,11,4,23350000,2,1,0,0,0,0,games_video,0,0,0,0,0,1,0,0,0,0,1,1,0,0,3,1,acquired
c:7376,MA,42.393662,-71.255855,2451,Waltham,Ounce Labs,10/1/2002,6/8/2006,9/16/2008,3.6877,5.9644,,,7,2,13500000,0,0,0,1,0,0,software,1,0,0,0,0,0,0,0,0,0,0,0,1,0,2.5,1,acquired
c:16070,MA,42.496515,-71.480233,1719,Boxborough,Crossbeam Systems,1/1/2000,5/8/2007,2/14/2008,7.3534,8.126,11.0329,11.0575,13,2,24500000,2,0,0,1,0,0,security,0,0,0,0,0,0,0,0,0,1,0,0,0,0,5.5,1,acquired
c:53814,CA,37.534538,-122.252466,94065,Redwood City,PacketHop,1/1/2002,8/8/2005,8/8/2005,3.6027,3.6027,3.0027,3.0027,2,1,10000000,1,1,0,0,0,0,public_relations,0,0,0,0,0,0,0,0,0,1,0,0,1,0,4,1,closed
c:53831,UT,40.767013,-111.890431,84124,Salt Lake City,Inaura,1/1/2007,1/6/2005,1/6/2005,-1.9863,-1.9863,,,3,1,8500000,0,0,0,0,0,1,other,0,0,0,0,0,0,0,0,0,1,0,0,0,0,1,0,closed
c:24040,TX,30.161661,-95.471256,77380,The Woodlands,DynaPump,1/1/1992,5/29/2008,5/29/2008,16.4192,16.4192,,,0,1,6000000,0,0,0,0,1,0,cleantech,0,0,0,0,0,0,0,0,0,1,0,1,0,0,3,0,closed
c:40762,CA,37.424298,-122.139809,94306,Palo Alto,Immunet Corporation,7/1/2008,11/1/2009,11/1/2009,1.337,1.337,1.3479,1.3479,3,1,2000000,1,1,0,0,0,0,software,1,0,0,0,0,0,0,0,0,0,1,0,0,0,2,1,acquired
c:75008,TX,30.280148,-97.749908,78701,Austin,CopperEgg Corporation,6/1/2010,7/12/2011,5/8/2012,1.1123,1.937,0,1.1123,3,2,4100000,2,0,0,0,1,0,enterprise,0,0,0,1,0,0,0,0,0,0,1,0,0,0,1.5,1,acquired
c:197,CA,37.40047,-122.072981,94041,Mountain View,Wink,8/19/2004,1/1/2005,1/1/2005,0.3699,0.3699,1.9507,8.3178,5,1,6200000,4,1,0,0,0,0,search,0,0,0,0,0,0,0,0,0,1,1,0,0,0,2,1,acquired
c:3087,CA,37.767575,-122.411157,94103,San Francisco,PopularMedia,1/1/2003,2/1/2007,7/28/2008,4.0877,5.5753,4.0027,4.0027,8,2,12250000,1,1,0,0,0,0,advertising,0,0,0,0,1,0,0,0,0,0,0,1,1,0,2.5,1,acquired
c:23098,CA,37.779281,-122.419236,94105,San Francisco,Miyowa,4/14/2003,9/4/2006,5/8/2008,3.3945,5.0712,5.7233,8.7342,3,2,11725600,2,1,0,0,0,0,mobile,0,0,1,0,0,0,0,0,0,0,1,1,0,0,2,1,acquired
c:45792,MA,42.504817,-71.195611,1803,Burlington,Intrusic,1/1/2001,4/25/2005,10/30/2006,4.3151,5.8301,,,1,2,16000000,0,0,0,1,0,0,software,1,0,0,0,0,0,0,0,0,0,1,1,0,0,3,1,closed
c:37215,WA,47.603832,-122.330062,98103,Seattle,Dashwire,8/11/2006,1/31/2009,12/28/2010,2.4767,4.3836,3.3945,4.9863,10,3,5056559,2,0,0,0,0,1,mobile,0,0,1,0,0,0,0,0,0,0,1,0,0,0,1.6667,1,acquired
c:314,CA,37.780883,-122.395257,94107,San Francisco,Reddit,1/1/2005,6/1/2005,6/1/2005,0.4137,0.4137,6.8329,8.874,9,1,100000,3,1,0,0,0,0,web,0,1,0,0,0,0,0,0,0,0,0,0,0,0,1,1,acquired
c:3991,CA,37.779281,-122.419236,94108,San Francisco,Pure Digital Technologies,9/1/2001,1/1/2004,8/18/2008,2.3342,6.9671,4.0027,8.3014,11,3,68200000,3,1,0,0,0,0,hardware,0,0,0,0,0,0,0,0,0,1,0,0,0,0,4,1,acquired
c:16892,CA,37.789429,-122.276524,94501,Alameda,Voxify,1/1/2001,2/1/2005,4/21/2010,4.0877,9.3068,6.0027,6.0027,5,3,33000000,1,1,0,0,0,0,enterprise,0,0,0,1,0,0,0,0,0,0,0,1,0,1,3.6667,1,acquired
c:38460,NC,35.986906,-78.896718,27701,Durham,EvoApp,1/1/2009,10/15/2010,4/20/2012,1.7863,3.3014,2.0822,2.3288,8,3,3352194,2,0,0,0,0,1,analytics,0,0,0,0,0,0,0,0,0,1,1,0,0,0,9.5,0,closed
c:64959,NY,40.750519,-73.993494,10001,New York,Visual Revenue,3/1/2010,7/28/2011,1/26/2012,1.4082,1.9068,-0.1616,1.8384,5,2,2212000,2,0,1,0,0,0,analytics,0,0,0,0,0,0,0,0,0,1,1,0,0,0,3,1,acquired
c:36484,CA,37.484347,-122.225803,94063,Redwood City,Calibra Medical,1/1/2004,11/24/2009,4/15/2011,5.9014,7.2904,,,1,4,19800000,0,1,0,0,0,0,biotech,0,0,0,0,0,0,0,1,0,0,0,0,0,1,5,1,acquired
c:47270,CA,37.566009,-122.321646,94401,San Mateo,Offermatic,2/1/2010,12/1/2010,3/9/2011,0.8301,1.0986,1.1014,1.1616,6,2,4500000,2,1,0,0,0,0,web,0,1,0,0,0,0,0,0,0,0,1,0,0,0,3,1,closed
c:17433,MA,42.2960173,-71.2128734,2494,Needham,HiWired,1/1/2004,1/1/2008,1/2/2008,4.0027,4.0055,4.0027,4.0027,2,2,14000000,1,0,0,1,0,0,software,1,0,0,0,0,0,0,0,0,0,0,1,0,0,1.5,1,acquired
c:144687,FL,26.106273,-80.41894,33327,Weston,DateMyFamily.com,11/11/2011,12/1/2011,12/1/2011,0.0548,0.0548,0.0685,0.4,4,1,100000,2,0,0,0,0,1,social,0,0,0,0,0,0,0,0,0,1,0,0,0,0,1,0,closed
c:6592,CA,37.4027811,-122.1441615,94304,Palo Alto,Hyperic,1/1/2004,5/10/2006,6/5/2007,2.3562,3.4274,3.0027,5.3425,4,2,9900000,2,1,0,0,0,0,software,1,0,0,0,0,0,0,0,0,0,1,1,0,0,2,1,acquired
c:34545,CA,37.779281,-122.419236,94104,San Francisco,Optimal,1/1/2008,1/1/2008,1/22/2013,0,5.063,5.0055,5.7945,10,3,7600000,2,1,0,0,0,0,advertising,0,0,0,0,1,0,0,0,0,0,1,1,0,0,5,1,acquired
c:17030,CA,34.430786,-119.715074,93101,Santa Barbara,SendMeHome.com,7/1/2008,7/1/2008,7/1/2008,0,0,0.737,0.737,2,1,50000,1,1,0,0,0,0,games_video,0,0,0,0,0,1,0,0,0,0,0,0,0,0,2,0,closed
c:13358,CA,37.448944,-122.161415,94301,Palo Alto,Q-magic,2/1/2007,1/1/2007,1/1/2007,-0.0849,-0.0849,,,3,1,650000,0,1,0,0,0,0,public_relations,0,0,0,0,0,0,0,0,0,1,0,0,0,0,1,0,closed
c:10610,CA,34.005914,-118.488129,90034,Los Angeles,Geodelic Systems,1/1/2008,12/1/2008,9/23/2010,0.9178,2.7288,2.4164,2.7288,8,3,10500000,3,1,0,0,0,0,mobile,0,0,1,0,0,0,0,0,0,0,1,1,0,0,2,1,closed
c:68470,CA,34.019657,-118.487549,90401,Santa Monica,BlockBeacon,1/1/2012,6/21/2012,6/21/2012,0.4712,0.4712,0,0.9178,12,1,500000,2,1,0,0,0,0,web,0,1,0,0,0,0,0,0,0,0,0,0,0,0,1,0,acquired
c:10197,CA,37.390501,-122.081151,94041,Mountain View,PostPath,1/1/2003,12/7/2004,1/16/2007,1.9342,4.0438,2.0027,10.189,2,2,24300000,3,1,0,0,0,0,web,0,1,0,0,0,0,0,0,0,0,0,1,1,0,2.5,1,acquired
c:33771,CA,37.386778,-121.966277,95054,Santa Clara,Attune Systems,1/1/1999,6/27/2006,11/14/2006,7.4904,7.874,7.0055,7.0055,6,2,18000000,1,1,0,0,0,0,hardware,0,0,0,0,0,0,0,0,0,1,0,1,0,0,4,1,closed
c:437,CA,37.779507,-122.39071,94107,San Francisco,TokBox,5/1/2007,12/26/2007,11/15/2010,0.6548,3.5452,3.8438,6.5589,27,3,26000000,5,1,0,0,0,0,messaging,0,0,0,0,0,0,0,0,0,1,1,1,1,0,3.6667,1,acquired
c:15870,CA,37.391642,-122.093935,94040,Mountain View,Avega Systems,1/1/2005,4/1/2007,1/13/2010,2.2466,5.0356,,,2,2,9500000,0,1,0,0,0,0,hardware,0,0,0,0,0,0,0,0,0,1,0,1,0,0,3,1,closed
c:20062,MD,39.2328783,-76.8204666,Maryland 21045,Columbia,Heartscape,1/1/2000,4/24/2007,4/24/2007,7.3151,7.3151,5.0055,5.0055,6,1,16980999,1,0,0,0,0,1,biotech,0,0,0,0,0,0,0,1,0,0,0,1,0,0,1,1,acquired
c:281,CA,37.419819,-122.090188,94043,Mountain View,PeerMe,1/1/2004,1/1/2005,1/1/2005,1.0027,1.0027,1.1644,3.5699,2,1,5000000,2,1,0,0,0,0,games_video,0,0,0,0,0,1,0,0,0,0,1,0,0,0,3,0,closed
c:19869,WA,47.657943,-117.421226,99202,SPOKANE,Pacinian,4/1/2007,12/1/2008,12/1/2008,1.6712,1.6712,,,3,1,350000,0,0,0,0,0,1,hardware,0,0,0,0,0,0,0,0,0,1,0,0,0,0,1,0,closed
c:8251,MA,42.485691,-71.19862,1803,Burlington,neoSaej,1/1/2006,3/29/2007,12/21/2010,1.2384,4.9726,1,1,1,5,13130000,1,0,0,1,0,0,web,0,1,0,0,0,0,0,0,0,0,1,0,0,0,2,1,closed
c:60243,WA,39.78373,-100.445882,98104,Seattle,Kiha Software,1/1/2008,10/28/2010,10/28/2010,2.8247,2.8247,0,2.8219,1,1,20000000,2,0,0,0,0,1,software,1,0,0,0,0,0,0,0,0,0,1,0,0,0,1,0,closed
c:513,MA,42.372912,-71.118999,2138,Cambridge,Vlingo,6/1/2006,12/1/2006,9/16/2009,0.5014,3.2959,2.0685,6.9973,18,3,26500000,4,0,0,1,0,0,mobile,0,0,1,0,0,0,0,0,0,0,1,1,0,0,2,1,acquired
c:19483,MA,42.432106,-71.453968,1754,Maynard,Tizor Systems,1/1/2002,9/12/2005,2/7/2006,3.6986,4.1041,,,4,2,15000000,0,0,0,1,0,0,enterprise,0,0,0,1,0,0,0,0,0,0,0,1,0,0,5,1,acquired
c:49341,MD,39.414219,-77.410927,21703,Frederick,Cerona Networks,1/1/2002,4/21/2006,4/21/2006,4.3041,4.3041,,,0,1,2600000,0,0,0,0,0,1,public_relations,0,0,0,0,0,0,0,0,0,1,1,0,0,0,1,0,closed
c:31764,CA,37.54827,-121.988572,94538,Fremont,Oorja Protonics,1/1/2004,5/25/2006,1/11/2010,2.3973,6.0329,,,1,4,21470000,0,1,0,0,0,0,cleantech,0,0,0,0,0,0,0,0,0,1,1,1,0,0,3.5,1,closed
c:51969,TX,30.280148,-97.749908,78701,Austin,Hurricane Party,5/1/2010,5/1/2010,5/1/2010,0,0,0.274,0.863,5,1,20000,2,0,0,0,1,0,mobile,0,0,1,0,0,0,0,0,0,0,0,0,0,0,1,0,closed
c:1284,CA,37.384239,-122.012475,94085,Sunnyvale,Minekey,1/1/2005,12/1/2006,8/1/2007,1.9151,2.5808,2,6.9178,10,2,3600000,3,1,0,0,0,0,web,0,1,0,0,0,0,0,0,0,0,1,0,0,0,1,0,closed
c:24029,NY,40.728425,-73.999882,10012,New York,Blip,5/1/2005,3/1/2006,7/30/2012,0.8329,7.2521,8.0055,8.4,23,7,27300000,4,0,1,0,0,0,games_video,0,0,0,0,0,1,0,0,0,0,1,1,1,1,2,1,acquired
c:166772,CA,37.779281,-122.419236,94105,San Francisco,Fabkids,1/1/2012,8/2/2012,8/2/2012,0.5863,0.5863,1.0493,1.0493,8,1,2600000,1,1,0,0,0,0,ecommerce,0,0,0,0,0,0,1,0,0,0,1,0,0,0,2,0,acquired
c:59709,CA,37.424298,-122.139809,94306,Palo Alto,CafeBots,1/1/2010,10/21/2010,10/21/2010,0.8027,0.8027,0,1.411,5,1,5000000,2,1,0,0,0,0,web,0,1,0,0,0,0,0,0,0,0,1,0,0,0,1,1,closed
c:11888,CA,32.897274,-117.201076,92121,San Diego,Avaak,1/1/2004,10/3/2008,3/22/2010,4.7589,6.2247,3.6685,6.2247,2,2,17000000,2,1,0,0,0,0,mobile,0,0,1,0,0,0,0,0,0,0,1,1,0,0,3.5,1,acquired
c:158294,ME,43.643967,-70.923675,4095,West Newfield,Newfield Design,1/1/2008,5/14/2012,5/14/2012,4.3699,4.3699,,,0,1,662000,0,0,0,0,0,1,manufacturing,0,0,0,0,0,0,0,0,0,1,1,0,0,0,3,0,closed
c:58550,NY,40.73901,-73.997259,10011,New York,Savored,1/1/2010,1/1/2010,1/10/2011,0,1.0247,2.0055,2.7315,12,2,3750000,2,0,1,0,0,0,hospitality,0,0,0,0,0,0,0,0,0,1,1,0,0,0,4,1,acquired
c:4,CA,37.764726,-122.394523,94107,San Francisco,Digg,10/11/2004,10/1/2005,7/12/2011,0.9726,6.7534,5.2466,9.1534,57,4,45000000,8,1,0,0,0,0,news,0,0,0,0,0,0,0,0,0,1,1,1,1,1,4.6667,1,acquired
c:1475,NY,40.7473113,-73.9549182,11101,Long Island City,Songza,11/1/2007,9/19/2011,9/10/2013,3.8849,5.863,2.8356,6.1123,9,2,6700000,4,0,1,0,0,0,music,0,0,0,0,0,0,0,0,0,1,0,0,0,0,8,1,acquired
c:23134,CA,37.536402,-122.325129,94065,Redwood City,Bigfoot Networks,1/1/2006,3/6/2006,11/17/2009,0.1753,3.8795,2,4.474,12,3,20750000,2,1,0,0,0,0,hardware,0,0,0,0,0,0,0,0,0,1,1,1,0,0,2.3333,1,acquired
c:453,CA,37.786942,-122.401245,94105,San Francisco,Kongregate,1/1/2006,3/1/2007,7/2/2013,1.1616,7.5041,,,5,4,19000000,0,1,0,0,0,0,games_video,0,0,0,0,0,1,0,0,0,0,1,1,1,0,2,1,acquired
c:30,CA,37.778613,-122.395289,94107,San Francisco,Powerset,10/1/2006,5/1/2006,6/1/2007,-0.4192,0.6658,,,20,3,22500000,0,1,0,0,0,0,search,0,0,0,0,0,0,0,0,0,1,1,0,0,0,4,1,acquired
c:282,CA,37.792394,-122.402349,94104,San Francisco,Kiptronic,5/1/2005,11/1/2005,6/5/2008,0.5041,3.0986,2.2384,3.7562,10,3,7300000,3,1,0,0,0,0,advertising,0,0,0,0,1,0,0,0,0,0,1,1,0,0,2,1,acquired
c:6340,WA,39.78373,-100.445882,98104,Seattle,Cozi Group,3/3/2005,12/1/2005,12/27/2012,0.7479,7.8247,4.3151,5.9041,16,7,26390819,3,0,0,0,0,1,web,0,1,0,0,0,0,0,0,0,0,1,1,0,0,1.3333,1,closed
c:9599,WA,47.582658,-122.135282,98007,Bellevue,Likewise Software,11/1/2004,4/30/2009,4/30/2009,4.4959,4.4959,,,4,1,10000000,0,0,0,0,0,1,software,1,0,0,0,0,0,0,0,0,0,0,0,1,0,3,1,acquired
c:63621,NY,40.73901,-73.997259,10011,NY,Lifestander,9/1/2010,10/2/2010,10/2/2010,0.0849,0.0849,0,0,1,1,31000,1,0,1,0,0,0,web,0,1,0,0,0,0,0,0,0,0,0,0,0,0,2,0,closed
c:251,CA,37.451026,-122.18676,94025,Menlo Park,Jaxtr,10/1/2005,7/1/2007,6/23/2008,1.7479,2.7288,1.7479,6.1452,16,3,21500000,4,1,0,0,0,0,mobile,0,0,1,0,0,0,0,0,0,0,1,1,0,0,3.3333,1,acquired
c:12285,CO,39.540323,-104.857271,80112,Englewood,MX Logic,1/1/2002,11/7/2006,11/7/2006,4.8521,4.8521,6.5863,6.5863,5,1,4000000,1,0,0,0,0,1,security,0,0,0,0,0,0,0,0,0,1,0,0,0,0,5,1,acquired
c:885,CA,33.020832,-117.077311,90275,Solana Beach,Metaplace,7/1/2006,1/1/2007,3/15/2010,0.5041,3.7068,2.9863,4.0219,5,3,9400000,4,1,0,0,0,0,games_video,0,0,0,0,0,1,0,0,0,0,1,1,0,0,4,1,acquired
c:1704,NY,37.402802,-122.117418,10004,New York,TravelMuse,4/16/2007,5/1/2007,6/1/2009,0.0411,2.1288,1.7562,4.874,9,3,5600000,4,0,1,0,0,0,web,0,1,0,0,0,0,0,0,0,0,1,1,0,0,2,1,acquired
c:5986,CA,37.782101,-122.389519,94105,San Francisco,Jambool,8/1/2006,8/1/2008,8/17/2009,2.0027,3.0466,3.5836,5.4767,9,2,6000000,2,1,0,0,0,0,finance,0,0,0,0,0,0,0,0,0,1,1,1,0,0,2.5,1,acquired
c:23756,GA,33.7862629,-84.3877936,30309,NW Atlanta,Zipcar,10/31/2000,12/20/2002,12/15/2010,2.137,10.1288,10.4164,12.1863,35,4,60704370,3,0,0,0,0,1,transportation,0,0,0,0,0,0,0,0,0,1,0,1,0,1,2,1,acquired
c:43172,CA,37.7822788,-122.392978,94107,San Francisco,Hitpost,4/1/2009,1/1/2010,4/26/2012,0.7534,3.0712,3.9178,4.5041,16,3,2000000,2,1,0,0,0,0,sports,0,0,0,0,0,0,0,0,0,1,0,0,0,0,3.6667,1,acquired
c:20637,CA,37.778551,-122.391686,94107,San Francisco,Home-Account,11/1/2008,4/16/2009,7/16/2009,0.4548,0.7041,0.5808,1.737,5,2,1000000,3,1,0,0,0,0,finance,0,0,0,0,0,0,0,0,0,1,1,0,0,0,5.5,1,acquired
c:20033,PA,40.012771,-75.239234,19004,Bala Cynwyd,PayParade Pictures,10/17/2007,12/1/2008,3/13/2009,1.126,1.4055,0.7918,1.3973,3,2,200000,2,0,0,0,0,1,games_video,0,0,0,0,0,1,0,0,0,0,1,0,0,0,2,1,closed
c:13504,CA,37.628328,-122.420814,94066,San Bruno,Planet Metrics,1/1/2007,11/12/2008,11/12/2008,1.8658,1.8658,0,1.863,2,1,2300000,2,1,0,0,0,0,cleantech,0,0,0,0,0,0,0,0,0,1,1,0,0,0,2,1,closed
c:3185,CA,37.7885714,-122.4035985,94108,San Francisco,kwiry,1/1/2006,3/20/2008,3/20/2008,2.2164,2.2164,0.7479,3.4164,5,1,1000000,4,1,0,0,0,0,mobile,0,0,1,0,0,0,0,0,0,0,1,0,0,0,1,1,closed
c:725,CA,37.779624,-122.391236,94107,San Francisco,imeem,11/1/2003,9/1/2004,8/1/2009,0.8356,5.7534,4.9781,7.0301,13,5,24750000,3,1,0,0,0,0,music,0,0,0,0,0,0,0,0,0,1,1,1,0,0,2.4,1,acquired
c:13921,IL,42.055849,-87.694664,60201,Evanston,Amadesa,5/15/2005,12/3/2007,10/5/2011,2.5534,6.3945,6.6356,6.6356,15,2,12800000,1,0,0,0,0,1,software,1,0,0,0,0,0,0,0,0,0,1,1,0,0,2,1,closed
c:24549,CA,37.4305755,-122.0971389,94043,Mountain View,Cast Iron Systems,1/1/2001,3/28/2005,7/29/2007,4.2384,6.5753,7.0027,7.0027,10,2,30500000,1,1,0,0,0,0,enterprise,0,0,0,1,0,0,0,0,0,0,0,0,0,1,4.5,1,acquired
c:5952,CA,33.133524,-117.254593,92010,Carlsbad,Aptera,1/1/2003,7/25/2008,7/13/2011,5.5671,8.5342,5.6055,7.8384,3,3,36300000,2,1,0,0,0,0,automotive,0,0,0,0,0,0,0,0,0,1,0,0,1,0,1.5,1,closed
c:43183,CA,37.779281,-122.419236,94111,San Francisco,RentJuice,1/1/2008,3/4/2010,1/31/2011,2.1726,3.0849,3.0877,4.7753,7,3,6693782,3,1,0,0,0,0,real_estate,0,0,0,0,0,0,0,0,0,1,0,0,0,0,1.6667,1,acquired
c:41968,CA,32.901049,-117.192656,92121,San Diego,Verari Systems,1/1/1996,6/5/2007,6/5/2007,11.4329,11.4329,,,1,1,20000000,0,1,0,0,0,0,hardware,0,0,0,0,0,0,0,0,0,1,0,0,1,0,5,1,closed
c:5485,CA,37.316653,-122.05074,95014,Cupertino,Parascale,1/1/2005,6/23/2008,6/23/2008,3.4767,3.4767,3.6849,5.6274,8,1,11370000,3,1,0,0,0,0,network_hosting,0,0,0,0,0,0,0,0,0,1,1,0,0,0,2,1,acquired
c:9,CA,34.090368,-118.393064,90069,West Hollywood,Geni,6/1/2006,1/1/2007,1/19/2009,0.5863,2.6384,3.5425,6.0712,13,3,16500000,4,1,0,0,0,0,web,0,1,0,0,0,0,0,0,0,0,1,1,1,0,1.3333,1,acquired
c:15129,CA,37.794891,-122.397901,94111,San Franciso,Zentact,9/1/2008,9/1/2008,9/1/2008,0,0,3.411,3.411,3,1,250000,1,1,0,0,0,0,network_hosting,0,0,0,0,0,0,0,0,0,1,0,0,0,0,3,0,closed
c:339,NY,40.7043822,-73.9865717,10010,New York,Outside.in,8/1/2006,2/1/2007,12/8/2009,0.5041,3.3562,3.4219,7.2274,9,5,14400000,5,0,1,0,0,0,web,0,1,0,0,0,0,0,0,0,0,1,1,0,0,5.8,1,acquired
c:967,NY,40.756054,-73.986951,10001,New York,Salesforce Buddy Media,9/1/2007,9/1/2007,8/15/2011,0,3.9562,4.7616,5.1507,24,5,90000000,3,0,1,0,0,0,enterprise,0,0,0,1,0,0,0,0,0,0,1,1,1,1,3.8,1,acquired
c:2925,CA,37.797435,-122.403175,94017,San Francisco,Vizu Corporation,2/14/2005,2/20/2006,4/9/2012,1.0164,7.1534,5.6959,8.1781,10,4,13075000,2,1,0,0,0,0,advertising,0,0,0,0,1,0,0,0,0,0,1,1,0,0,4,1,acquired
c:86,CA,37.388077,-122.08316,94041,Mountain View,Zing Systems,6/1/2007,12/1/2006,1/1/2007,-0.4986,-0.4137,-0.4986,5.7699,10,2,26000000,4,1,0,0,0,0,games_video,0,0,0,0,0,1,0,0,0,0,1,0,1,0,2.5,1,acquired
c:69834,MA,42.504817,-71.195611,1803,Burlington,DynamicOps,1/1/2008,2/28/2011,9/9/2011,3.1616,3.6904,3.0027,4.5041,6,2,16300000,2,0,0,1,0,0,enterprise,0,0,0,1,0,0,0,0,0,0,0,1,0,0,2,1,acquired
c:44434,TX,30.409765,-97.75101,78759,Austin,Movero Technology,1/1/2003,6/14/2007,3/23/2010,4.4521,7.2274,7.0055,7.0055,5,2,5992316,1,0,0,0,1,0,enterprise,0,0,0,1,0,0,0,0,0,0,1,0,0,0,2,0,acquired
c:40417,CA,32.962655,-117.189656,92130,San Diego,Elevation Pharmaceuticals,1/1/2007,1/21/2010,1/4/2012,3.0575,5.011,,,2,4,89400001,0,1,0,0,0,0,biotech,0,0,0,0,0,0,0,1,0,0,1,1,0,0,4.3333,1,acquired
c:18897,CA,37.4233698,-122.0986859,94303,Palo Alto,Punch Entertainment,5/10/2005,2/27/2006,2/27/2006,0.8027,0.8027,5.3151,5.3151,4,1,1200000,1,1,0,0,0,0,software,1,0,0,0,0,0,0,0,0,0,1,0,0,0,1,0,closed
c:43416,NY,40.729839,-73.991781,10003,New York,Stickybits,1/1/2009,3/9/2010,5/19/2010,1.1836,1.3781,1.3288,3.1096,7,2,1900000,2,0,1,0,0,0,web,0,1,0,0,0,0,0,0,0,0,1,0,0,0,2.5,1,closed
c:23692,CA,37.779281,-122.419236,94108,San Francisco,Ecast,1/1/1999,5/7/2008,5/26/2011,9.3534,12.4055,7.0055,11.3836,9,3,30300000,2,1,0,0,0,0,games_video,0,0,0,0,0,1,0,0,0,0,0,0,0,1,4.5,1,closed
c:28162,NY,40.730646,-73.986614,10013,New York,lifeIO,8/29/2006,8/29/2008,8/29/2008,2.0027,2.0027,,,4,1,500000,0,0,1,0,0,0,web,0,1,0,0,0,0,0,0,0,0,0,0,0,0,5,0,closed
c:1587,CA,34.049767,-118.459387,90405,Santa Monica,EdgeCast Networks,8/1/2006,8/1/2006,7/18/2013,0,6.9671,6.4247,7.3562,19,5,74000000,2,1,0,0,0,0,network_hosting,0,0,0,0,0,0,0,0,0,1,1,1,1,1,1.75,1,acquired
c:26988,TX,32.945354,-96.708874,75081,Richardson,Sirific Wireless,1/1/2000,2/12/2007,2/12/2007,7.1205,7.1205,,,3,1,18800000,0,0,0,0,1,0,semiconductor,0,0,0,0,0,0,0,0,0,1,0,0,1,0,7,1,acquired
c:26390,MI,42.8138649,-86.023846,49464,Zeeland,Revetto,1/1/2009,5/1/2009,5/1/2009,0.3288,0.3288,-0.4192,-0.4192,3,1,20000,1,0,0,0,0,1,web,0,1,0,0,0,0,0,0,0,0,0,0,0,0,1,0,closed
c:32094,VA,38.969532,-77.385948,20170,Herndon,ZoomSafer,1/1/2009,3/1/2009,3/7/2011,0.1616,2.1781,1.5096,2.1781,3,4,3350000,2,0,0,0,0,1,mobile,0,0,1,0,0,0,0,0,0,0,1,1,0,0,1.5,0,acquired
c:39364,NJ,40.944543,-74.075419,7652,Paramus,AkaRx,1/1/2005,1/7/2010,1/7/2010,5.0192,5.0192,,,1,1,26100000,0,0,0,0,0,1,biotech,0,0,0,0,0,0,0,1,0,0,0,0,0,0,2,1,acquired
c:51623,PA,40.441694,-79.990086,15213,Pittsburgh,Lama Lab,1/1/2009,5/31/2010,7/8/2011,1.411,2.5151,,,0,2,1213066,0,0,0,0,0,1,enterprise,0,0,0,1,0,0,0,0,0,0,0,0,0,0,1,1,closed
c:8676,CA,37.425359,-122.1389633,94306,Palo Alto,Buysight,1/1/2008,11/4/2008,3/21/2012,0.8438,4.2219,0.7616,4.9288,18,3,24030000,3,1,0,0,0,0,advertising,0,0,0,0,1,0,0,0,0,0,1,1,0,0,3.6667,1,acquired
c:767,CA,37.764169,-122.402021,94110,San Francisco,TripIt,10/1/2006,4/1/2007,3/4/2010,0.4986,3.4247,1.9863,5.9616,14,3,13100000,5,1,0,0,0,0,travel,0,0,0,0,0,0,0,0,0,1,0,1,1,0,1.6667,1,acquired
c:6011,NY,40.757929,-73.985506,10010,New York,Pinch Media,4/1/2008,5/1/2008,1/6/2010,0.0822,1.7671,0.3014,5.0082,6,3,560001,5,0,1,0,0,0,software,1,0,0,0,0,0,0,0,0,0,0,0,0,0,3.5,1,acquired
c:31794,MN,44.9773,-93.265469,55311,Minneapolis,Enstratius,1/1/2009,11/7/2011,11/7/2011,2.8493,2.8493,2.9068,4.1918,7,1,3500000,3,0,0,0,0,1,enterprise,0,0,0,1,0,0,0,0,0,0,1,0,0,0,2,1,acquired
c:10054,MA,42.368633,-71.075305,2210,Boston,Jumptap,1/1/2005,3/1/2005,7/2/2012,0.1616,7.5041,7.0521,8.6192,45,7,121500000,3,0,0,1,0,0,mobile,0,0,1,0,0,0,0,0,0,0,1,1,1,1,4.5,1,acquired
c:14036,CA,37.409096,-121.943191,95134,San Jose,WiChorus,1/1/2005,12/22/2005,11/4/2008,0.9726,3.8438,2,2,18,4,42500000,1,1,0,0,0,0,mobile,0,0,1,0,0,0,0,0,0,0,1,1,1,0,2.5,1,acquired
c:38123,NC,35.996653,-78.901805,27713,Durham,Hatteras Networks,1/1/2000,6/8/2005,6/1/2006,5.4384,6.4192,6.0055,6.0055,26,2,36000000,1,0,0,0,0,1,software,1,0,0,0,0,0,0,0,0,0,0,0,0,1,3.5,1,acquired
c:16709,CA,37.793949,-122.398062,94111,San Francisco,Focus,8/1/2005,3/6/2008,3/6/2008,2.5973,2.5973,2.9178,5.4822,7,1,12170000,2,1,0,0,0,0,enterprise,0,0,0,1,0,0,0,0,0,0,0,0,1,0,3,1,closed
c:46901,NY,40.730646,-73.986614,10005,New York,easy2comply (Dynasec),1/1/2002,10/2/2007,10/2/2007,5.7534,5.7534,8.0055,9.8356,4,1,1000000,2,0,1,0,0,0,software,1,0,0,0,0,0,0,0,0,0,1,0,0,0,3,1,acquired
c:18056,CA,38.88521,-76.998641,94107,San Francisco,Socialize,7/1/2008,11/1/2011,6/7/2012,3.337,3.937,-2.4986,4.7205,5,3,1820000,4,1,0,0,0,0,mobile,0,0,1,0,0,0,0,0,0,0,0,0,0,0,1,0,acquired
c:13219,WA,30.6324797,-86.9843446,98033,Kirkland,Clearwire,10/1/2003,5/6/2008,2/27/2013,4.6,9.4164,5.2575,9.7753,19,4,5700000000,2,0,0,0,0,1,mobile,0,0,1,0,0,0,0,0,0,0,0,0,0,0,4.25,1,acquired
c:44576,TX,32.960431,-96.83026,75001,Addison,CREDANT Technologies,1/1/2001,12/20/2007,12/20/2007,6.9699,6.9699,0.0849,11.9699,6,1,5000000,2,0,0,0,1,0,security,0,0,0,0,0,0,0,0,0,1,0,0,1,0,5,1,acquired
c:55043,NY,40.750519,-73.993494,10001,New York,Exclusively.in,1/1/2010,11/3/2010,5/29/2011,0.8384,1.4055,1.6356,1.6356,4,2,18800000,1,0,1,0,0,0,fashion,0,0,0,0,0,0,0,0,0,1,1,1,0,0,2.5,1,acquired
c:31832,CA,37.406914,-122.09037,94043,Mountain View,Avidia,1/1/2003,5/6/2005,5/9/2006,2.3452,3.3534,,,3,2,72300000,0,1,0,0,0,0,advertising,0,0,0,0,1,0,0,0,0,0,0,1,1,0,4.5,1,acquired
c:51021,CA,33.685697,-117.825982,92612,Irvine,PayDivvy,3/6/2009,1/15/2009,4/27/2012,-0.137,3.1452,-2.0932,4.4082,3,3,1310000,4,1,0,0,0,0,social,0,0,0,0,0,0,0,0,0,1,0,0,0,0,1,0,acquired
c:42672,MA,42.479262,-71.152277,1801,Woburn,Octavian,1/1/2003,6/1/2005,10/10/2007,2.4164,4.7753,4.0027,4.0027,2,2,15000000,1,0,0,1,0,0,software,1,0,0,0,0,0,0,0,0,0,1,1,0,0,2.5,1,closed
c:130,NY,40.7516611,-73.9843328,10011,New York,KickApps,3/1/2004,6/1/2006,11/25/2008,2.2521,4.7397,5.337,7.274,22,3,39007789,5,0,1,0,0,0,enterprise,0,0,0,1,0,0,0,0,0,0,1,1,1,0,3,1,acquired
c:47601,MA,42.504817,-71.195611,1803,Burlington,Airwide Solutions,1/1/2004,1/25/2006,1/25/2006,2.0685,2.0685,-1.9151,-1.9151,3,1,25000000,1,0,0,1,0,0,software,1,0,0,0,0,0,0,0,0,0,0,0,0,1,5,1,acquired
c:60087,MA,42.360253,-71.058291,2210,Boston,Localocracy,1/1/2009,5/1/2009,2/4/2011,0.3288,2.0932,1.3288,2.7534,4,3,172500,2,0,0,1,0,0,web,0,1,0,0,0,0,0,0,0,0,0,0,0,0,1,0,acquired
c:24853,NY,40.730646,-73.986614,10013,New York City,Pixable,3/12/2009,11/10/2010,4/22/2011,1.6658,2.1123,2.3041,3.5507,23,2,6100000,2,0,1,0,0,0,social,0,0,0,0,0,0,0,0,0,1,1,1,0,0,1,1,acquired
c:14608,CA,37.862592,-122.493561,94939,Larkspur,mFoundry,1/1/2004,3/21/2006,12/5/2011,2.2192,7.9315,1.6685,9.0904,7,3,40300000,5,1,0,0,0,0,mobile,0,0,1,0,0,0,0,0,0,0,0,1,1,0,4,1,acquired
c:65389,CA,34.098242,-118.35697,90046,Los Angeles,Bevvy,1/8/2011,5/20/2011,5/20/2011,0.3616,0.3616,0.3753,0.5425,9,1,100000,3,1,0,0,0,0,ecommerce,0,0,0,0,0,0,1,0,0,0,0,0,0,0,1,0,closed
c:1767,WA,47.6399006,-122.1914274,98104,Seattle,Livemocha,9/1/2007,1/1/2008,2/25/2013,0.3342,5.4904,2.7507,5.589,14,5,19389998,2,0,0,0,0,1,education,0,0,0,0,0,0,0,0,0,1,1,1,1,0,1.5,1,acquired
c:6012,CA,37.626166,-122.411025,94066,San Bruno,IronPort Systems,1/1/2000,6/25/2002,10/25/2004,2.4822,4.8192,5.5863,11.9452,21,2,61500000,3,1,0,0,0,0,hardware,0,0,0,0,0,0,0,0,0,1,0,1,0,1,4,1,acquired
c:44976,CA,37.779281,-122.419236,94108,San Francisco,Crowdcast,1/1/2007,6/10/2010,6/10/2010,3.4411,3.4411,4.0027,5.7178,6,1,6000000,2,1,0,0,0,0,software,1,0,0,0,0,0,0,0,0,0,1,0,0,0,2,1,acquired
c:2275,MA,42.360253,-71.058291,2114,Boston,Where,1/1/2004,12/31/2003,1/1/2009,-0.0027,5.0055,4.9507,7.3726,23,4,19100000,6,0,0,1,0,0,mobile,0,0,1,0,0,0,0,0,0,0,1,1,1,0,2.5,1,acquired
c:16611,NY,40.756054,-73.986951,10003,New York,Pictela,10/17/2008,1/6/2009,11/6/2010,0.2219,2.0548,0.0411,3.9178,8,4,3499997,3,0,1,0,0,0,advertising,0,0,0,0,1,0,0,0,0,0,1,0,0,0,1.5,1,acquired
c:975,CA,37.502742,-122.211281,94063,Redwood City,Grouply,3/1/2006,6/1/2007,1/14/2008,1.2521,1.874,4.7178,5.0959,13,3,2600000,2,1,0,0,0,0,network_hosting,0,0,0,0,0,0,0,0,0,1,1,0,0,0,3.6667,1,acquired
c:51332,CA,37.779281,-122.419236,94103,San Francisco,Storify,12/11/2009,7/1/2009,2/3/2011,-0.4466,1.1479,3.0603,3.7479,14,3,2023000,2,1,0,0,0,0,web,0,1,0,0,0,0,0,0,0,0,1,0,0,0,1.3333,1,acquired
c:25713,CA,33.685697,-117.825982,92618,Irvine,Axiom Microdevices,1/1/2002,2/8/2007,2/8/2007,5.1068,5.1068,,,3,1,25000000,0,1,0,0,0,0,semiconductor,0,0,0,0,0,0,0,0,0,1,0,0,0,0,4,1,acquired
c:36151,CA,34.019657,-118.487549,90404,Santa Monica,ShoeDazzle,3/1/2009,11/19/2009,10/3/2012,0.7205,3.5945,2.8384,4.0192,17,4,66000000,4,1,0,0,0,0,fashion,0,0,0,0,0,0,0,0,0,1,1,1,1,0,2.3333,1,acquired
c:148576,NY,40.74929,-73.981328,10016,New York,LiftDNA,9/1/2009,2/1/2011,2/11/2011,1.4192,1.4466,1.663,1.663,5,2,1000000,1,0,1,0,0,0,advertising,0,0,0,0,1,0,0,0,0,0,0,0,0,0,3.5,0,acquired
c:73586,CA,37.424298,-122.139809,94306,Palo Alto,Onavo,1/1/2010,5/1/2011,1/24/2012,1.3288,2.063,3.2493,3.7836,11,2,13000000,2,1,0,0,0,0,mobile,0,0,1,0,0,0,0,0,0,0,1,1,0,0,3,1,acquired
c:46070,MA,42.37564,-71.2358,2451,Waltham,Pyxis Mobile,1/1/1998,9/9/2005,1/10/2012,7.6932,14.0329,12.5041,14.0329,3,3,24150000,2,0,0,1,0,0,software,1,0,0,0,0,0,0,0,0,0,1,1,0,0,2.3333,1,closed
c:84867,CA,37.354469,-121.990433,95051,Santa Clara,Link_A_Media Devices,1/1/2004,11/2/2009,3/20/2012,5.8411,8.2219,,,4,3,47218498,0,1,0,0,0,0,semiconductor,0,0,0,0,0,0,0,0,0,1,0,0,1,1,3.3333,1,closed
c:12171,MA,42.37564,-71.2358,2451,Waltham,Guardium,1/1/2002,8/12/2005,5/17/2006,3.6137,4.3753,0,7.9178,1,2,11800000,2,0,0,1,0,0,search,0,0,0,0,0,0,0,0,0,1,0,0,1,1,4.5,1,acquired
c:45413,NV,35.96544,-115.106579,89052,Henderson,Trooval,9/1/2008,4/7/2010,11/5/2010,1.5973,2.1781,0.0822,0.0822,2,2,2387481,1,0,0,0,0,1,analytics,0,0,0,0,0,0,0,0,0,1,0,0,0,0,1,1,closed
c:1285,MA,42.346743,-71.076632,2116,Boston,Compete,1/1/2000,11/1/2000,8/1/2007,0.8356,7.5863,11.589,13.5863,35,4,33000000,5,0,0,1,0,0,consulting,0,0,0,0,0,0,0,0,1,0,1,1,1,0,2.5,1,acquired
c:13730,VA,38.872668,-77.367981,22102,McLean,Rollstream,1/1/2005,9/3/2007,11/18/2008,2.6712,3.8822,4.0027,7.3205,4,2,7500000,3,0,0,0,0,1,software,1,0,0,0,0,0,0,0,0,0,1,1,0,0,1.5,1,acquired
c:31936,CA,37.404788,-121.940842,95134,San Jose,NeoGuide Systems,1/1/2000,9/29/2006,9/29/2006,6.7479,6.7479,4.0027,4.0027,3,1,25000000,1,1,0,0,0,0,biotech,0,0,0,0,0,0,0,1,0,0,0,0,1,0,1,1,acquired
c:32011,CA,37.386778,-121.966277,95054,Santa Clara,Accept Software,1/1/2002,9/16/2005,12/14/2010,3.7096,8.9562,4.0027,4.0027,7,4,25305000,1,1,0,0,0,0,software,1,0,0,0,0,0,0,0,0,0,1,1,1,0,2,1,acquired
c:22203,CA,37.444531,-122.163352,94301,Palo Alto,Milo,1/1/2008,11/1/2008,11/24/2009,0.8356,1.8986,2.3014,3.8356,21,2,4950000,3,1,0,0,0,0,web,0,1,0,0,0,0,0,0,0,0,1,0,0,0,12.5,1,acquired
c:10512,CA,37.379684,-121.97514,95054,Santa Clara,Mimosa Systems,8/29/2003,12/5/2005,1/12/2010,2.2712,6.3781,,,8,6,53816776,0,1,0,0,0,0,software,1,0,0,0,0,0,0,0,0,0,0,1,1,1,5,1,acquired
c:105,NY,37.809782,-122.417306,10003,New York,Surphace,6/1/2005,4/1/2005,5/1/2006,-0.1671,0.9151,2.674,8.3836,15,2,3500000,4,0,1,0,0,0,web,0,1,0,0,0,0,0,0,0,0,1,1,0,0,5.5,1,acquired
c:60436,CA,37.388869,-122.072353,94041,Mountain View,Cloudmeter,4/1/2007,4/27/2012,4/27/2012,5.0767,5.0767,4.7562,6.0466,7,1,5000000,2,1,0,0,0,0,enterprise,0,0,0,1,0,0,0,0,0,0,1,0,0,0,1,0,acquired
c:5779,CA,37.384756,-122.087712,94010,Burlingame,Zecter,6/1/2007,6/1/2007,12/14/2009,0,2.5397,3.7699,5.9233,9,3,2515000,3,1,0,0,0,0,network_hosting,0,0,0,0,0,0,0,0,0,1,1,0,0,0,1.6667,1,acquired
c:3413,MA,42.6161515,-71.3258687,1851,Lowell,Dimdim,1/1/2006,2/1/2007,7/1/2008,1.0849,2.4986,2.5205,5.0192,10,2,8400000,3,0,0,1,0,0,web,0,1,0,0,0,0,0,0,0,0,1,1,0,0,2,1,acquired
c:6049,CA,34.01695,-118.451933,90405,Santa Monica,TeleFlip,1/1/2004,8/1/2006,1/1/2008,2.5836,4.0027,2.0301,4.6164,5,2,4900000,3,1,0,0,0,0,mobile,0,0,1,0,0,0,0,0,0,0,1,1,0,0,1,1,closed
c:58998,WA,47.614422,-122.192337,98004,Bellevue,MessageGate,1/1/2001,4/18/2005,4/18/2005,4.2959,4.2959,5.0027,5.0027,3,1,5000000,1,0,0,0,0,1,software,1,0,0,0,0,0,0,0,0,0,0,0,0,0,5,1,closed
c:39283,NY,40.825655,-73.467622,11797,Woodbury,Cloverleaf Communications,1/1/2001,6/28/2005,6/28/2005,4.4904,4.4904,,,2,1,11000000,0,0,1,0,0,0,public_relations,0,0,0,0,0,0,0,0,0,1,0,0,1,0,3,1,acquired
c:13681,CA,37.381876,-121.95993,95054,Santa Clara,SkyPilot Networks,1/1/2000,1/1/2001,4/1/2008,1.0027,8.2548,,,6,4,68400000,0,1,0,0,0,0,mobile,0,0,1,0,0,0,0,0,0,0,1,0,1,1,4,1,acquired
c:21762,CA,37.779281,-122.419236,94103,San Francisco,Zencoder,1/1/2007,2/1/2010,4/12/2011,3.0877,4.2795,3.6356,4.6685,7,2,2000000,2,1,0,0,0,0,software,1,0,0,0,0,0,0,0,0,0,1,0,0,0,8.5,1,acquired
c:39801,NY,40.730646,-73.986614,10010,New York,Storm Exchange,4/1/2006,12/1/2006,3/4/2008,0.6685,1.926,0,0,2,2,10800000,1,0,1,0,0,0,enterprise,0,0,0,1,0,0,0,0,0,0,1,0,0,0,2,1,closed
c:1388,NY,40.729839,-73.991781,10003,New York,The Huffington Post,5/9/2005,5/1/2005,8/1/2010,-0.0219,5.2329,5.7616,7.4877,31,5,37000000,3,0,1,0,0,0,news,0,0,0,0,0,0,0,0,0,1,1,1,1,0,2.5,1,acquired
c:11307,CA,37.419347,-122.089639,94043,Mountain View,Exaprotect,1/1/2004,7/10/2006,7/10/2006,2.5233,2.5233,4.0027,9.8849,5,1,7660000,3,1,0,0,0,0,security,0,0,0,0,0,0,0,0,0,1,1,0,0,0,6,1,acquired
c:37929,MA,42.537592,-71.51201,1460,Littleton,Akorri Networks,1/1/2005,5/5/2005,3/23/2010,0.3397,5.2247,3,6.0329,5,4,48730000,3,0,0,1,0,0,software,1,0,0,0,0,0,0,0,0,0,1,1,1,0,3,1,acquired
c:47115,CA,34.054935,-118.244476,90032,Los Angeles,Giiv,1/1/2009,1/1/2009,6/1/2010,0,1.4137,1.4137,1.4137,1,2,3350000,1,1,0,0,0,0,messaging,0,0,0,0,0,0,0,0,0,1,1,0,0,0,2.5,1,closed
c:11817,CA,34.141876,-118.132377,91203,Glendale,MyShape,9/1/2003,7/17/2007,11/10/2010,3.8767,7.1973,2.6658,7.1973,3,4,28000000,2,1,0,0,0,0,ecommerce,0,0,0,0,0,0,1,0,0,0,0,1,1,0,3,1,closed
c:81476,TX,30.2702703,-97.742204,78701,Austin,BlackLocus,1/1/2010,7/1/2011,7/1/2011,1.4959,1.4959,2.0849,2.0849,5,1,2500000,1,0,0,0,1,0,analytics,0,0,0,0,0,0,0,0,0,1,1,0,0,0,2,1,acquired
c:155,IL,41.889474,-87.628912,60610,Chicago,FeedBurner,2/1/2004,6/1/2004,4/1/2005,0.3315,1.1644,2.0795,9.3507,16,2,8000000,4,0,0,0,0,1,web,0,1,0,0,0,0,0,0,0,0,1,1,0,0,4,1,acquired
c:9822,NY,40.73901,-73.997259,10011,New York,DailyBurn,10/1/2007,5/1/2008,5/26/2009,0.5836,1.6521,0.6329,4.263,6,2,540000,2,0,1,0,0,0,web,0,1,0,0,0,0,0,0,0,0,0,0,0,0,2.5,1,acquired
c:93,CA,37.780716,-122.393913,94107,San Francisco,CastTV,1/1/2006,1/1/2006,4/1/2007,0,1.2466,1,5.4384,4,2,3100000,4,1,0,0,0,0,games_video,0,0,0,0,0,1,0,0,0,0,1,0,0,0,2,1,acquired
c:37635,NY,40.750519,-73.993494,10001,New York,Venmo,4/4/2009,5/7/2010,8/1/2011,1.0904,2.326,2.8301,4.6904,8,2,1200000,2,0,1,0,0,0,mobile,0,0,1,0,0,0,0,0,0,0,1,0,0,0,6,1,acquired
c:1627,NY,40.752516,-73.973072,10017,New York,WeShow,6/1/2007,6/1/2007,6/1/2007,0,0,0.1096,0.1096,2,1,5000000,1,0,1,0,0,0,games_video,0,0,0,0,0,1,0,0,0,0,1,0,0,0,2,0,closed
c:15294,CA,37.785655,-122.398393,CA 94105,San Francisco,SenSage,8/18/2004,4/18/2005,1/1/2012,0.6658,7.3753,2.3726,2.3726,6,6,37079000,1,1,0,0,0,0,security,0,0,0,0,0,0,0,0,0,1,0,0,1,1,3.8,1,acquired
c:27163,MA,42.528635,-71.278022,1821,Billerica,Luminus Devices,1/1/2002,5/1/2006,3/1/2013,4.3315,11.1699,8.7041,8.7068,3,4,135826373,2,0,0,1,0,0,other,0,0,0,0,0,0,0,0,0,1,0,1,0,1,4.3333,1,acquired
c:3267,CA,32.88945,-117.166929,92121,San Diego,Tapioca Mobile,1/1/2008,9/1/2007,3/25/2008,-0.3342,0.2301,,,5,2,5000000,0,1,0,0,0,0,mobile,0,0,1,0,0,0,0,0,0,0,0,0,0,0,1,1,closed
c:77139,NY,40.728425,-73.999882,10012,New York,BestVendor,1/1/2011,3/18/2011,2/1/2012,0.2082,1.0849,0.1616,2.6521,3,4,4200000,3,0,1,0,0,0,software,1,0,0,0,0,0,0,0,0,0,1,0,0,0,3,1,acquired
c:9085,WA,47.5989681,-122.3329036,98104,Seattle,Local Marketers,1/1/2005,7/31/2008,7/31/2008,3.5808,3.5808,-1.0027,7.5918,3,1,4100000,3,0,0,0,0,1,web,0,1,0,0,0,0,0,0,0,0,0,0,0,0,1,1,closed
c:80259,CA,37.222698,-121.979887,95030,Los Gatos,Eyeona,1/1/2011,10/10/2011,10/10/2011,0.7726,0.7726,0.3123,1.1479,3,1,2000000,2,1,0,0,0,0,web,0,1,0,0,0,0,0,0,0,0,0,0,0,0,1,0,closed
c:26806,CO,39.937989,-105.058729,80021,Broomfield,ColdSpark,1/1/2001,1/1/2006,1/1/2006,5.0027,5.0027,5.4986,5.4986,3,1,6500000,1,0,0,0,0,1,software,1,0,0,0,0,0,0,0,0,0,0,0,0,0,1,1,acquired
c:18080,CA,37.561111,-122.270487,94404,Foster City,Etology,6/1/2005,11/13/2006,11/13/2006,1.4521,1.4521,,,0,1,4000000,0,1,0,0,0,0,web,0,1,0,0,0,0,0,0,0,0,1,0,0,0,3,0,closed
c:55592,CA,37.391642,-122.093935,94040,Mountain View,Wander (f. YongoPal),1/1/2010,4/1/2010,1/1/2011,0.2466,1,1.1616,1.1616,3,5,185000,1,1,0,0,0,0,mobile,0,0,1,0,0,0,0,0,0,0,0,0,0,0,2,1,closed
c:74928,OR,45.520247,-122.674195,97214,Portland,CrowdCompass,4/1/2009,12/11/2011,12/11/2011,2.6959,2.6959,3.2192,4.0027,5,1,1300000,2,0,0,0,0,1,mobile,0,0,1,0,0,0,0,0,0,0,1,0,0,0,1,0,acquired
c:2731,NY,40.74632,-73.982607,10011,New York,Right Media,1/1/2003,10/17/2006,10/17/2006,3.7945,3.7945,,,21,1,45000000,0,0,1,0,0,0,advertising,0,0,0,0,1,0,0,0,0,0,0,1,0,0,1,0,acquired
c:32383,MA,42.360253,-71.058291,2111,Boston,Goby,7/1/2008,10/20/2010,10/20/2010,2.3041,2.3041,-0.3342,2.3589,4,1,2500000,3,0,0,1,0,0,search,0,0,0,0,0,0,0,0,0,1,1,0,0,0,2,1,acquired
c:1419,TX,30.280148,-97.749908,78701,Austin,FiveRuns,2/1/2005,9/1/2005,10/28/2007,0.5808,2.737,1.9151,4.6603,11,2,9200000,2,0,0,0,1,0,web,0,1,0,0,0,0,0,0,0,0,1,1,0,0,1,1,acquired
c:53304,CA,34.066697,-118.383367,90211,Beverly Hills,GeekStatus,8/1/2010,2/10/2009,6/12/2010,-1.4712,-0.137,,,0,4,435953,0,1,0,0,0,0,web,0,1,0,0,0,0,0,0,0,0,0,0,0,0,1,0,closed
c:1899,CT,54.983201,-1.574631,6103,Hartford,MOLI,1/1/2008,1/1/2007,1/1/2008,-1,0,-1.5863,0.863,9,2,55600000,2,0,0,0,0,1,network_hosting,0,0,0,0,0,0,0,0,0,1,1,1,0,0,2,0,closed
c:29168,CO,39.616435,-104.879925,80111,Greenwood Village,TrenStar,1/1/2001,4/6/2007,4/6/2007,6.263,6.263,1,1,2,1,10000000,1,0,0,0,0,1,software,1,0,0,0,0,0,0,0,0,0,0,0,0,0,1,0,acquired
c:60352,WA,47.603832,-122.330062,98109,Seattle,World Blender,1/1/2010,11/1/2010,11/1/2010,0.8329,0.8329,0.6658,0.6658,3,1,12000,1,0,0,0,0,1,games_video,0,0,0,0,0,1,0,0,0,0,0,0,0,0,1,1,closed
c:39507,MD,38.988766,-76.940952,20742,College Park,Zymetis,1/1/2006,1/11/2010,1/31/2010,4.0301,4.0849,,,3,2,2257464,0,0,0,0,0,1,biotech,0,0,0,0,0,0,0,1,0,0,0,0,0,0,1,0,closed
c:82843,NY,40.729839,-73.991781,10003,New York,Dispatch,5/1/2011,7/1/2011,11/10/2011,0.1671,0.5288,0.1671,2.4438,4,2,983000,2,0,1,0,0,0,messaging,0,0,0,0,0,0,0,0,0,1,0,0,0,0,6,1,acquired
c:23052,CA,34.054935,-118.244476,90015,Los Angeles,HauteLook,12/1/2007,5/12/2009,6/3/2010,1.4466,2.5068,2.5014,3.6411,15,2,41000000,2,1,0,0,0,0,fashion,0,0,0,0,0,0,0,0,0,1,0,1,1,0,1.5,1,acquired
c:10969,TX,32.969251,-96.823778,75001,Addison,Semantra,1/1/2003,9/1/2006,7/22/2008,3.6685,5.5589,,,0,3,9100000,0,0,0,0,1,0,software,1,0,0,0,0,0,0,0,0,0,0,1,1,0,1,0,closed
c:6150,CA,38.223032,-122.261642,94558,Napa,Inertia Beverage Group,10/22/2004,4/2/2007,1/1/2012,2.4438,7.1973,-2.0575,6.8767,6,3,25500100,3,1,0,0,0,0,software,1,0,0,0,0,0,0,0,0,0,0,1,0,0,2.5,1,closed
c:46129,CA,37.779281,-122.419236,94103,San Francisco,Sponge,1/1/2010,4/19/2010,4/19/2010,0.2959,0.2959,1.5863,1.6658,3,1,400000,2,1,0,0,0,0,web,0,1,0,0,0,0,0,0,0,0,0,0,0,0,1,1,acquired
c:36936,NY,40.730646,-73.986614,10119,New York,Genesis Networks,1/1/2002,9/26/2006,5/6/2010,4.737,8.3479,,,4,10,22165091,0,0,1,0,0,0,network_hosting,0,0,0,0,0,0,0,0,0,1,0,1,0,0,2,1,acquired
c:1760,CA,37.763652,-122.421778,94110,San Francisco,Mogad,6/1/2007,8/1/2007,8/1/2007,0.1671,0.1671,0.6712,3.3151,4,1,500000,2,1,0,0,0,0,network_hosting,0,0,0,0,0,0,0,0,0,1,1,0,0,0,4,1,acquired
c:173,CA,37.393679,-122.079017,94041,Mountain View,Meebo,2/1/2005,10/1/2005,12/20/2010,0.663,5.8849,6.211,8.6082,29,5,70000000,4,1,0,0,0,0,web,0,1,0,0,0,0,0,0,0,0,1,1,1,1,2.8,1,acquired
c:6520,IL,42.048203,-88.031569,60143,Itasca,Accertify,3/1/2007,6/3/2008,5/4/2010,1.2603,3.1781,2.8411,2.8411,6,2,4700000,1,0,0,0,0,1,security,0,0,0,0,0,0,0,0,0,1,1,0,0,0,1,1,acquired
c:1725,MA,37.09024,-95.712891,2142,Cambridge,N2N Commerce,1/1/2006,1/3/2008,1/3/2008,2.0055,2.0055,0,0,1,1,30000000,1,0,0,1,0,0,ecommerce,0,0,0,0,0,0,1,0,0,0,0,0,0,0,2,1,acquired
c:26007,MA,42.447318,-71.2245,2421,Lexington,StreamBase Systems,1/1/2003,1/24/2005,5/18/2012,2.0658,9.3836,7.0055,7.0055,13,5,39000000,1,0,0,1,0,0,software,1,0,0,0,0,0,0,0,0,0,0,1,1,1,3.25,1,acquired
c:16189,CA,37.381341,-121.977065,95054-2913,Santa Clara,Provigent,1/1/2000,6/7/2006,12/29/2008,6.4356,9,10.0082,10.0082,10,3,32000000,1,1,0,0,0,0,semiconductor,0,0,0,0,0,0,0,0,0,1,0,0,0,1,3,1,acquired
c:6117,MA,42.375518,-71.272292,2451,Waltham,Navic Networks,1/3/2000,2/14/2000,2/26/2001,0.1151,1.1507,,,7,3,42000000,0,0,0,1,0,0,advertising,0,0,0,0,1,0,0,0,0,0,1,1,1,0,2.6667,1,acquired
c:45696,CA,33.685697,-117.825982,92618,Irvine,Integrien,1/1/2001,5/16/2005,5/11/2010,4.3726,9.3616,4.0027,9.3616,5,3,24510540,2,1,0,0,0,0,enterprise,0,0,0,1,0,0,0,0,0,0,1,1,0,0,2.6667,1,acquired
c:56580,CA,37.441537,-122.158332,94301,Palo Alto,Generic Media,1/1/2000,8/26/2005,8/26/2005,5.6548,5.6548,,,0,1,2500000,0,1,0,0,0,0,software,1,0,0,0,0,0,0,0,0,0,0,0,0,0,2,1,closed
c:23072,FL,28.0385347,-82.5068513,33618,Tampa,Persystent Technologies,1/1/2002,8/8/2005,12/3/2009,3.6027,7.926,8.5945,9.1096,1,3,21460663,2,0,0,0,0,1,software,1,0,0,0,0,0,0,0,0,0,0,1,1,1,4.5,1,acquired
c:49442,NY,40.730646,-73.986614,10013,New York,WireImage,1/1/2001,5/8/2006,5/8/2006,5.3507,5.3507,,,6,1,15000000,0,0,1,0,0,0,games_video,0,0,0,0,0,1,0,0,0,0,0,0,1,0,4,1,acquired
c:38794,CA,37.779281,-122.419236,94110,San Francisco,Hello Chair,1/1/2006,6/1/2007,4/12/2010,1.4137,4.2795,1.3288,5.1836,5,2,889999,2,1,0,0,0,0,mobile,0,0,1,0,0,0,0,0,0,0,0,0,0,0,3.5,1,closed
c:58018,CA,37.573045,-122.2823,94404,Foster City,Encentuate,1/1/2001,3/22/2005,3/22/2005,4.2219,4.2219,3,3,6,1,16000000,1,1,0,0,0,0,software,1,0,0,0,0,0,0,0,0,0,0,1,0,0,3,1,acquired
c:921,CA,37.762185,-122.467269,94104,San Francisco,Consorte Media,7/1/2005,12/1/2007,12/1/2007,2.4192,2.4192,2.5041,8.3973,5,1,7000000,4,1,0,0,0,0,web,0,1,0,0,0,0,0,0,0,0,0,1,0,0,2,1,acquired
c:71120,NY,40.730646,-73.986614,10004,New York,Triples Media,6/1/2010,3/1/2011,3/1/2011,0.7479,0.7479,,,3,2,100000,0,0,1,0,0,0,advertising,0,0,0,0,1,0,0,0,0,0,0,0,0,0,1,0,closed
c:20146,NY,40.73901,-73.997259,10011,New York,RightsFlow,10/1/2007,8/26/2009,8/26/2009,1.9041,1.9041,1.9041,4.0027,13,1,1500000,3,0,1,0,0,0,music,0,0,0,0,0,0,0,0,0,1,1,0,0,0,1,0,acquired
c:7440,WA,47.617838,-122.356027,98104,Seattle,thePlatform,1/1/2000,1/12/2006,1/12/2006,6.0356,6.0356,10.4959,12.6137,19,1,8000000,4,0,0,0,0,1,web,0,1,0,0,0,0,0,0,0,0,0,0,0,0,1,1,acquired
c:512,CA,34.018275,-118.495025,90401,Santa Monica,Docstoc,8/1/2007,11/1/2007,4/28/2008,0.2521,0.7425,4.2082,6.3479,22,2,4000000,4,1,0,0,0,0,web,0,1,0,0,0,0,0,0,0,0,1,1,0,0,3,1,acquired
c:25808,CA,37.7611016,-122.4160008,94110,San Francisco,TwtBks,6/20/2009,6/26/2009,6/26/2009,0.0164,0.0164,,,3,1,25000,0,1,0,0,0,0,web,0,1,0,0,0,0,0,0,0,0,0,0,0,0,1,0,closed
c:20117,CA,37.484347,-122.225803,94063,Redwood City,Zenprise,1/1/2003,6/6/2005,1/1/2012,2.4301,9.0055,8.5781,10.0137,10,6,64630000,3,1,0,0,0,0,mobile,0,0,1,0,0,0,0,0,0,0,0,1,1,0,3.6667,1,acquired
c:10398,CA,40.787878,-74.388207,94402,San Mateo,Picateers,1/1/2005,1/1/2006,8/25/2008,1,3.6493,3.4986,3.4986,10,2,12100000,1,1,0,0,0,0,web,0,1,0,0,0,0,0,0,0,0,1,1,0,0,1,1,closed
c:14854,CA,37.779281,-122.419236,94111,San Francisco,Vontu,1/1/2001,3/21/2005,8/11/2006,4.2192,5.611,5.0027,5.0027,9,2,20000000,1,1,0,0,0,0,software,1,0,0,0,0,0,0,0,0,0,0,0,1,1,4.5,1,acquired
c:37647,TX,30.409765,-97.75101,78759,Austin,NextIO,1/1/2003,1/11/2005,5/17/2012,2.0301,9.3808,9.0055,9.0055,10,4,49600000,1,0,0,0,1,0,hardware,0,0,0,0,0,0,0,0,0,1,0,1,1,0,2.6667,1,closed
c:18875,CA,34.1549426,-118.6545471,91302,Calabasas,Emergent Game Technologies,1/1/2000,7/5/2007,12/10/2009,7.5123,9.9479,0.4164,0.4164,3,5,51450000,1,1,0,0,0,0,games_video,0,0,0,0,0,1,0,0,0,0,0,0,0,1,5.6667,1,acquired
c:27591,CA,37.775206,-122.419209,94107,San Francisco,threadsy,6/1/2008,3/27/2008,12/7/2010,-0.1808,2.5178,4.6904,4.6904,7,2,6300000,1,1,0,0,0,0,messaging,0,0,0,0,0,0,0,0,0,1,1,1,0,0,2,1,acquired
c:76274,NY,40.750519,-73.993494,10001,New York,Sonar.me,1/1/2010,1/1/2012,1/1/2012,2,2,1.0274,3.1644,8,1,200000,3,0,1,0,0,0,mobile,0,0,1,0,0,0,0,0,0,0,0,0,0,0,2,1,closed
c:150577,OH,39.099909,-84.504243,45202,Cincinnati,StyleZen,9/1/2011,9/1/2011,9/1/2011,0,0,0,0,2,1,20000,1,0,0,0,0,1,fashion,0,0,0,0,0,0,0,0,0,1,0,0,0,0,1,0,closed
c:12052,MA,42.492256,-71.134549,1864,North Reading,Kiva Systems,1/1/2003,1/1/2003,5/24/2006,0,3.3945,6.9781,9.2192,13,2,11600000,3,0,0,1,0,0,hardware,0,0,0,0,0,0,0,0,0,1,1,0,1,0,2,1,acquired
c:3180,CA,37.391727,-122.077597,94041,Mountain View,Krillion,5/1/2006,6/14/2006,6/14/2006,0.1205,0.1205,-0.2438,5.263,6,1,9150000,2,1,0,0,0,0,web,0,1,0,0,0,0,0,0,0,0,1,0,0,0,2,1,acquired
c:33912,OH,39.099909,-84.504243,45202,Cincinnati,Transactiv,7/1/2009,10/13/2009,10/13/2009,0.2849,0.2849,0,0.2849,2,1,1200000,2,0,0,0,0,1,advertising,0,0,0,0,1,0,0,0,0,0,1,0,0,0,4,1,closed
c:71372,CA,34.054935,-118.244476,90049,Los Angeles,nprogress,2/1/2010,12/1/2011,12/1/2011,1.8301,1.8301,1.1616,1.1616,4,1,1700000,2,1,0,0,0,0,social,0,0,0,0,0,0,0,0,0,1,0,0,0,0,7,1,closed
c:465,CA,39.762314,-104.982256,94010,Burlingame,Brightkite,1/1/2007,8/1/2007,7/6/2009,0.5808,2.5123,0.5918,4.9699,9,3,1415000,4,1,0,0,0,0,social,0,0,0,0,0,0,0,0,0,1,0,0,0,0,1,1,acquired
c:17430,CA,37.7915,-122.40045,94104,San Francisco,Peanut Labs,1/1/2005,2/1/2006,2/19/2008,1.0849,3.1342,5.9178,7.9342,16,2,4200000,2,1,0,0,0,0,enterprise,0,0,0,1,0,0,0,0,0,0,1,1,0,0,1.5,1,acquired
c:4529,MA,42.354023,-71.058096,2110,Boston,FlipKey,1/1/2007,12/1/2007,8/20/2008,0.9151,1.6356,4.8521,6.0904,7,2,500000,2,0,0,1,0,0,web,0,1,0,0,0,0,0,0,0,0,1,0,0,0,2,0,acquired
c:41957,TX,32.997114,-96.676137,75082,Richardson,AppTrigger,1/1/2002,12/13/2007,12/13/2007,5.9507,5.9507,,,1,1,21500000,0,0,0,0,1,0,public_relations,0,0,0,0,0,0,0,0,0,1,0,0,1,0,4,1,acquired
c:2889,UT,40.3310529,-111.7276347,84042,Lindon,Footnote,6/1/2006,6/16/2006,1/1/2008,0.0411,1.5863,2.2795,4.3918,4,2,10000000,2,0,0,0,0,1,web,0,1,0,0,0,0,0,0,0,0,1,0,0,0,2,0,acquired
c:46042,CA,34.054935,-118.244476,90064,Los Angeles,NextMedium,1/1/2004,2/1/2005,7/24/2006,1.0877,2.5616,4.0027,4.0027,7,2,9500000,1,1,0,0,0,0,software,1,0,0,0,0,0,0,0,0,0,1,1,0,0,2.5,1,closed
c:38504,NM,35.084103,-106.650985,87102,Albuquerque,iosil Energy,1/1/2007,12/24/2009,3/17/2012,2.9808,5.211,,,4,2,13875001,0,0,0,0,0,1,cleantech,0,0,0,0,0,0,0,0,0,1,0,0,0,0,10,1,closed
c:25997,NJ,40.347054,-74.064306,7701,Red Bank,Kurani Interactive,1/1/2000,11/25/2010,11/25/2010,10.9068,10.9068,9.2548,9.2548,5,1,275000,1,0,0,0,0,1,software,1,0,0,0,0,0,0,0,0,0,0,0,0,0,2,0,closed
c:2953,CA,37.426316,-122.141082,94306,Palo Alto,Kapow Software,1/1/2005,2/1/2005,1/13/2010,0.0849,5.0356,1.8329,1.8329,10,3,19743770,1,1,0,0,0,0,software,1,0,0,0,0,0,0,0,0,0,0,1,1,0,2.5,1,acquired
c:49876,MA,42.360253,-71.058291,2110,Boston,Locately,7/1/2008,8/1/2010,7/7/2012,2.0849,4.0192,2.5041,2.5041,5,5,1178000,1,0,0,1,0,0,software,1,0,0,0,0,0,0,0,0,0,0,0,0,0,5,1,acquired
c:1447,CA,37.520592,-122.255907,94306,Palo Alto,TrustedID,1/1/2005,10/1/2005,10/18/2007,0.7479,2.7945,2.0575,3.8356,5,3,25000000,2,1,0,0,0,0,security,0,0,0,0,0,0,0,0,0,1,1,1,0,0,2,1,acquired
c:26114,PA,40.6015759,-75.3611135,18015,Bethlehem,Ciclon Semiconductor Device Corporation,1/1/2004,8/2/2005,3/7/2007,1.5863,3.1808,,,1,3,24150000,0,0,0,0,0,1,semiconductor,0,0,0,0,0,0,0,0,0,1,1,1,0,0,2,1,acquired
c:25688,CA,37.382162,-122.036301,94086,Sunnyvale,Azingo,1/1/2005,10/1/2006,7/18/2008,1.7479,3.5452,2,2,4,2,80000000,1,1,0,0,0,0,mobile,0,0,1,0,0,0,0,0,0,0,1,1,0,0,1,0,closed
c:335,CA,37.354469,-121.990433,95051,Santa Clara,Vudu,1/1/2004,6/1/2005,4/29/2007,1.4164,3.326,4.4192,9.8164,11,2,36000000,3,1,0,0,0,0,hardware,0,0,0,0,0,0,0,0,0,1,1,1,0,0,3.5,1,acquired
c:10153,MO,38.703764,-90.443832,63043,Saint Louis,"ITOG, Inc.",9/19/2006,2/11/2008,2/11/2008,1.3973,1.3973,,,1,1,205000,0,0,0,0,0,1,network_hosting,0,0,0,0,0,0,0,0,0,1,0,0,0,0,1,0,closed
c:27,CA,37.387845,-122.055197,94089,Sunnyvale,Plaxo,11/17/2002,11/1/2002,2/1/2007,-0.0438,4.211,6.4164,9.0658,27,4,28300000,4,1,0,0,0,0,web,0,1,0,0,0,0,0,0,0,0,1,1,1,1,2.5,1,acquired
c:1957,CA,37.550954,-122.315396,94303,Palo Alto,Sharetivity,7/7/2007,5/1/2006,5/1/2006,-1.1836,-1.1836,0.8301,0.8301,1,1,2000000,1,1,0,0,0,0,web,0,1,0,0,0,0,0,0,0,0,0,0,0,0,1,0,closed
c:63,CA,37.627971,-122.426804,94066,San Bruno,YouTube,2/1/2005,11/1/2005,4/1/2006,0.7479,1.1616,2.4,8.8384,63,2,11500000,6,1,0,0,0,0,games_video,0,0,0,0,0,1,0,0,0,0,1,1,0,0,1,1,acquired
c:58699,NY,40.730646,-73.986614,10018,New York City,Hashable,1/1/2010,11/22/2010,11/22/2010,0.8904,0.8904,1.3288,2.526,15,1,4000000,2,0,1,0,0,0,mobile,0,0,1,0,0,0,0,0,0,0,1,0,0,0,3,1,closed
c:43386,NY,40.74929,-73.981328,10016,New York,MyNines,8/1/2009,4/19/2010,4/19/2010,0.7151,0.7151,0.7479,2.011,2,1,500000,2,0,1,0,0,0,ecommerce,0,0,0,0,0,0,1,0,0,0,0,0,0,0,1,1,closed
c:3717,TX,30.387275,-97.759511,78759,Austin,itzbig,6/1/2006,2/27/2007,2/27/2007,0.7425,0.7425,1.1671,3.9151,9,1,4000000,2,0,0,0,1,0,search,0,0,0,0,0,0,0,0,0,1,1,0,0,0,2,1,closed
c:70893,NY,40.650104,-73.949582,11201,Brooklyn,Loosecubes,1/1/2010,1/1/2010,6/5/2012,0,2.4274,2.4274,2.4986,8,2,9030000,2,0,1,0,0,0,web,0,1,0,0,0,0,0,0,0,0,1,0,0,0,4,1,closed
c:24727,PA,39.952399,-75.16359,19104,Philadelphia,Avid Radiopharmaceuticals,1/1/2005,1/25/2005,5/21/2009,0.0658,4.3863,,,15,4,69900000,0,0,0,0,0,1,biotech,0,0,0,0,0,0,0,1,0,0,1,0,1,1,4.75,1,acquired
c:162219,CA,34.050451,-118.437775,90024,Los Angeles,Contur,9/1/2011,5/1/2012,5/1/2012,0.6658,0.6658,0.4192,0.4192,2,1,20000,1,1,0,0,0,0,messaging,0,0,0,0,0,0,0,0,0,1,0,0,0,0,1,0,closed
c:12178,IN,39.7672093,-86.1580785,46204,Indianapolis,ExactTarget,12/1/2000,7/21/2004,10/24/2012,3.6384,11.9041,10.9836,12.6822,29,7,238209999,3,0,0,0,0,1,software,1,0,0,0,0,0,0,0,0,0,0,0,0,0,2,1,acquired
c:23487,MA,42.504817,-71.195611,1803,Burlington,Rhythmia Medical,1/1/2004,2/6/2007,9/24/2010,3.1014,6.7342,4.0027,6.7342,3,3,14700000,2,0,0,1,0,0,medical,0,0,0,0,0,0,0,0,0,1,0,1,0,0,1,0,acquired
c:3400,CA,37.437328,-122.159928,94303,Palo Alto,MyMiniLife,1/1/2007,11/15/2006,11/15/2007,-0.1288,0.8712,-0.5863,1.2137,4,3,430000,2,1,0,0,0,0,games_video,0,0,0,0,0,1,0,0,0,0,0,0,0,0,1.6667,0,acquired
c:176278,CA,37.538352,-122.299665,94403,San Mateo,Adept Cloud,6/1/2011,10/1/2012,11/1/2012,1.337,1.4219,0.5863,0.5863,5,2,1015000,1,1,0,0,0,0,enterprise,0,0,0,1,0,0,0,0,0,0,1,0,0,0,1,0,acquired
c:22113,CA,37.4484914,-122.1802812,94025,Menlo Park,Factery,4/1/2009,9/10/2009,9/10/2009,0.4438,0.4438,0.8192,0.8192,2,1,1200000,1,1,0,0,0,0,web,0,1,0,0,0,0,0,0,0,0,0,0,0,0,2,1,closed
c:5617,PA,40.364273,-74.951278,18938,New Hope,"MeetMe, Inc.",4/1/2005,1/29/2007,7/29/2008,1.8301,3.3288,3.274,7.6274,16,2,17100000,4,0,0,0,0,1,web,0,1,0,0,0,0,0,0,0,0,1,1,0,0,2.5,1,acquired
c:15996,CO,39.6478,-104.9875,80155,Englewood,WildBlue,1/1/2004,9/3/2008,9/3/2008,4.6767,4.6767,5.9671,5.9671,0,1,50000000,1,0,0,0,0,1,web,0,1,0,0,0,0,0,0,0,0,0,0,0,0,4,1,acquired
c:46893,CA,34.054935,-118.244476,90039,Los Angeles,HeadCase Humanufacturing,1/1/2006,8/28/2006,8/28/2006,0.6548,0.6548,,,3,1,900000,0,1,0,0,0,0,software,1,0,0,0,0,0,0,0,0,0,1,0,0,0,1,1,closed
c:1753,CA,37.563905,-122.324688,94401,San Mateo,bluepulse,4/10/1990,4/1/2007,4/1/2007,16.9863,16.9863,16.663,18.3233,7,1,6000000,2,1,0,0,0,0,network_hosting,0,0,0,0,0,0,0,0,0,1,1,0,0,0,1,1,closed
c:22057,NY,40.729839,-73.991781,10003,New York,Mr. Youth,1/1/2002,10/1/2002,2/1/2009,0.7479,7.0904,8.0055,9.874,5,2,15100000,3,0,1,0,0,0,advertising,0,0,0,0,1,0,0,0,0,0,1,0,0,0,1,0,acquired
c:35887,CA,38.232583,-122.636465,94954,Petaluma,Teknovus,1/1/2001,1/1/2002,11/16/2009,1,8.8795,4.0027,9.1863,7,5,62600000,2,1,0,0,0,0,semiconductor,0,0,0,0,0,0,0,0,0,1,1,1,1,1,9.3333,1,acquired
c:1628,CA,37.486368,-122.230116,94063,Redwood City,Qik,6/1/2006,4/9/2008,1/6/2011,1.8575,4.6027,3.9178,6.4301,15,4,14800000,3,1,0,0,0,0,mobile,0,0,1,0,0,0,0,0,0,0,0,1,1,0,2.25,1,acquired
c:4453,CA,34.172904,-118.374037,91601,North Hollywood,EQAL,4/1/2008,4/16/2008,5/23/2011,0.0411,3.1425,1.8466,4.4877,30,2,6875000,5,1,0,0,0,0,web,0,1,0,0,0,0,0,0,0,0,1,0,0,0,7,1,acquired
c:16973,TX,31.5682893,-97.1973664,76710,Waco,IonLogix Systems,12/11/2007,10/24/2008,10/24/2008,0.8712,0.8712,,,1,1,30000,0,0,0,0,1,0,software,1,0,0,0,0,0,0,0,0,0,0,0,0,0,1,0,closed
c:47689,CA,37.386778,-121.966277,95054,Santa Clara,Atrica,1/1/2000,4/5/2006,4/5/2006,6.263,6.263,6.0055,6.0055,10,1,22200000,1,1,0,0,0,0,public_relations,0,0,0,0,0,0,0,0,0,1,0,0,0,0,9,1,closed
c:459,CO,40.0186731,-105.2762236,80302,Boulder,Socialthing,5/18/2007,8/1/2007,10/23/2007,0.2055,0.4329,0.4685,2.9507,6,2,415000,2,0,0,0,0,1,network_hosting,0,0,0,0,0,0,0,0,0,1,0,0,0,0,1,1,acquired
c:3094,NY,40.743808,-73.983626,10010,New York,Next New Networks,3/1/2007,1/1/2007,12/29/2010,-0.1616,3.8329,3.0027,4.7014,16,4,27063781,4,0,1,0,0,0,web,0,1,0,0,0,0,0,0,0,0,1,1,1,0,3.5,1,acquired
c:12468,CA,34.394343,-119.51231,93013,Carpinteria,AdECN,1/1/2003,2/1/2006,2/1/2006,3.0877,3.0877,5.0027,5.0027,6,1,3100000,1,1,0,0,0,0,advertising,0,0,0,0,1,0,0,0,0,0,1,0,0,0,5,1,acquired
c:856,CA,37.451124,-122.166264,94025,Menlo Park,Cuil,1/1/2005,3/1/2007,4/15/2008,2.1616,3.2877,3.4986,7.6904,13,2,33000000,4,0,0,0,0,0,search,0,0,0,0,0,0,0,0,0,1,1,1,0,0,2.5,1,closed
c:16276,CA,37.430025,-122.09998,94043,Mountain View,Sensory Networks,1/1/2003,10/10/2005,1/1/2008,2.7753,5.0027,4.1644,10.7534,2,3,17400000,2,1,0,0,0,0,web,0,1,0,0,0,0,0,0,0,0,0,0,1,0,5,1,acquired
c:410,CA,37.491356,-122.228843,94025,Menlo Park,Flock,1/1/2005,1/1/2005,5/21/2008,0,3.3863,5.3973,8.7123,17,5,28300000,4,1,0,0,0,0,web,0,1,0,0,0,0,0,0,0,0,1,1,1,1,2,1,acquired
c:726,CA,37.563585,-122.324621,94043,Mountain View,AdMob,12/1/2006,9/1/2006,1/29/2009,-0.2493,2.1644,1.411,6.537,42,4,46800000,6,1,0,0,0,0,advertising,0,0,0,0,1,0,0,0,0,0,1,1,1,0,2.5,1,acquired
c:8573,IL,41.879535,-87.624333,60654,Chicago,FeeFighters,1/1/2009,5/1/2010,1/12/2011,1.3288,2.0301,2,2.0301,5,3,1525000,2,0,0,0,0,1,ecommerce,0,0,0,0,0,0,1,0,0,0,0,0,0,0,2.6667,1,acquired
c:102867,NY,40.730646,-73.986614,10010,New York City,WeHostels,11/15/2011,3/18/2012,3/18/2012,0.3397,0.3397,0.5452,1.7151,9,1,1200000,3,0,1,0,0,0,travel,0,0,0,0,0,0,0,0,0,1,0,0,0,0,5,1,acquired
c:431,CA,37.391642,-122.093935,94040,Mountain View,TimeBridge,5/1/2005,7/5/2005,5/11/2009,0.1781,4.0301,3.674,7.2438,6,3,12400000,4,1,0,0,0,0,web,0,1,0,0,0,0,0,0,0,0,1,1,0,0,1.6667,1,acquired
c:60516,PA,39.959721,-75.605964,19380,West Chester,Lazarus Therapeutics,1/1/2006,8/2/2010,8/2/2010,4.5863,4.5863,,,1,1,100000,0,0,0,0,0,1,biotech,0,0,0,0,0,0,0,1,0,0,0,0,0,0,1,1,closed
c:43832,CA,37.779281,-122.419236,94105,San Francisco,Loyalty Lab,1/1/2003,3/22/2005,4/29/2010,2.2219,7.3288,7.0055,7.0055,4,3,11000000,1,1,0,0,0,0,software,1,0,0,0,0,0,0,0,0,0,0,1,0,0,1.6667,1,acquired
c:83142,TN,36.16223,-86.774353,37201,Nashville,RentStuff.com,1/1/2010,5/5/2011,4/12/2012,1.3397,2.2795,1,1,3,2,675000,1,0,0,0,0,1,web,0,1,0,0,0,0,0,0,0,0,0,0,0,0,1.5,0,acquired
c:9669,CA,37.3725243,-122.035963,94086,Sunnyvale,ZManda,1/1/2005,1/1/2005,5/22/2007,0,2.3863,,,5,2,13000000,0,1,0,0,0,0,software,1,0,0,0,0,0,0,0,0,0,1,1,0,0,2.5,1,acquired
c:62802,NY,40.728425,-73.999882,10012,New York,Jumo,2/1/2010,11/1/2010,11/1/2010,0.7479,0.7479,1.0329,2.4986,5,1,3500000,2,0,1,0,0,0,social,0,0,0,0,0,0,0,0,0,1,0,0,0,0,2,1,acquired
c:56568,MA,42.49173,-71.281795,1730,Bedford,Sionex,1/1/2001,12/7/2005,12/7/2005,4.9342,4.9342,0,0,2,1,12000000,1,0,0,1,0,0,hardware,0,0,0,0,0,0,0,0,0,1,0,0,1,0,4,1,closed
